     3.04           OBSERVATION DATA    M: Mixed            RINEX VERSION / TYPE
gnss_comm obs2rinex                     20250413 065335 UTC PGM / RUN BY / DATE 
                                                            MARKER NAME         
                                                            MARKER NUMBER       
                                                            MARKER TYPE         
                                                            OBSERVER / AGENCY   
                                                            REC # / TYPE / VERS 
                                                            ANT # / TYPE        
                                                            APPROX POSITION XYZ 
                                                            ANTENNA: DELTA H/E/N
G    8 C1C L1C D1C S1C C2S L2S D2S S2S                      SYS / # / OBS TYPES 
R    8 C1C L1C D1C S1C C2C L2C D2C S2C                      SYS / # / OBS TYPES 
E    8 C1C L1C D1C S1C C7Q L7Q D7Q S7Q                      SYS / # / OBS TYPES 
C    8 C2I L2I D2I S2I C7I L7I D7I S7I                      SYS / # / OBS TYPES 
  2025     4    11     9    27    5.4990000     GPS         TIME OF FIRST OBS   
  2025     4    11     9    29   43.9990000     GPS         TIME OF LAST OBS    
G                                                           SYS / PHASE SHIFT   
R                                                           SYS / PHASE SHIFT   
E                                                           SYS / PHASE SHIFT   
C                                                           SYS / PHASE SHIFT   
  0                                                         GLONASS SLOT / FRQ #
 C1C    0.000 C1P    0.000 C2C    0.000 C2P    0.000        GLONASS COD/PHS/BIS 
                                                            END OF HEADER       
> 2025  4 11  9 27  5.4990000  0 22                     
G05  21475809.237   112856140.929        1929.484          41.000    21475798.549    87939809.550        1503.495          36.000  
G06  21546436.568   113227288.533        -944.579          42.000    21546427.663    88229016.062        -736.087          37.000  
G07  25174747.324   132294211.763        1369.008          28.000                                                                  
G09  23284749.355   122362176.097       -2651.791          38.000    23284740.943    95347121.934       -2066.656          37.000  
G11  20636142.309   108443661.911         517.303          44.000    20636129.320    84501501.184         403.247          41.000  
G13  22623575.718   118887706.658        3984.736          42.000                                                                  
G17  24877413.309           0.000       -3259.705          23.000                                                                  
G19  22347656.498   117437709.243       -3347.598          38.000                                                                  
G20  20326643.857   106817232.773         153.998          45.000                                                                  
G25  24017934.975   126215112.178        -730.192          33.000    24017935.389    98349435.214        -569.254          32.000  
G29  24607578.967   129313711.877        3772.711          38.000    24607581.687   100763876.259        2939.505          27.000  
G30  24772348.005   130179679.042        2157.807          40.000    24772350.793   101438638.700        1681.433          35.000  
C07  35925451.017   187073242.923        -697.792          42.000    35925430.589   144656816.083        -539.576          40.000  
C08  36407033.488   189580979.198         -70.126          40.000    36407012.427   146595951.990         -53.940          42.000  
C10  35974869.925   187330578.485        -389.122          42.000    35974852.095   144855812.975        -300.938          40.000  
C13  37022748.424   192787169.782          64.241          41.000    37022736.842   149075215.590          49.667          39.000  
C19  24919996.780   129764961.928        3177.707          38.000                                                                  
C20  21695235.036   112972786.716        1280.429          49.000                                                                  
C27  24706040.854   128650817.386       -2418.372          42.000                                                                  
C29  22253067.305   115877562.773        2283.557          46.000                                                                  
C30  21421675.700   111548284.020        -545.360          47.000                                                                  
C32  22735153.819   118387905.596       -1852.713          46.000                                                                  
> 2025  4 11  9 27  5.9990000  0 22                     
G05  21475625.658   112855175.929        1930.074          42.000    21475614.897    87939057.596        1503.594          36.000  
G06  21546526.453   113227760.630        -944.328          42.000    21546517.520    88229383.929        -735.906          37.000  
G07  25174616.988   132293527.117        1369.795          27.000                                                                  
G09  23285001.610   122363501.665       -2651.086          38.000    23284993.188    95348154.830       -2065.710          37.000  
G11  20636093.058   108443402.988         518.011          44.000    20636080.111    84501299.427         403.815          41.000  
G13  22623196.530   118885713.934        3985.386          42.000                                                                  
G17  24877723.472           0.000       -3261.313          23.000                                                                  
G19  22347974.938   117439382.676       -3346.869          38.000                                                                  
G20  20326629.063   106817155.585         154.436          45.000                                                                  
G25  24018004.396   126215476.969        -728.760          33.000    24018004.907    98349719.502        -568.698          32.000  
G29  24607220.011   129311825.285        3773.032          38.000    24607224.001   100762406.140        2940.198          27.000  
G30  24772142.636   130178599.807        2158.446          41.000    24772145.420   101437797.740        1682.199          35.000  
C07  35925517.994   187073591.513        -697.035          42.000    35925497.521   144657085.641        -539.110          40.000  
C08  36407040.167   189581013.792         -69.088          40.000    36407019.039   146595978.756         -53.382          41.000  
C10  35974907.213   187330772.793        -388.510          42.000    35974889.345   144855963.233        -300.440          40.000  
C13  37022742.190   192787137.347          64.761          41.000    37022730.620   149075190.545          49.862          39.000  
C19  24919691.580   129763372.736        3178.559          38.000                                                                  
C20  21695112.021   112972146.288        1280.745          49.000                                                                  
C27  24706273.062   128652026.374       -2417.949          42.000                                                                  
C29  22252848.030   115876420.800        2283.946          46.000                                                                  
C30  21421728.089   111548556.480        -544.903          47.000                                                                  
C32  22735331.723   118388831.738       -1852.218          46.000                                                                  
> 2025  4 11  9 27  6.4990000  0 22                     
G05  21475442.029   112854210.863        1930.072          42.000    21475431.248    87938305.588        1504.174          36.000  
G06  21546616.310   113228232.635        -944.326          42.000    21546607.367    88229751.715        -735.519          37.000  
G07  25174486.736   132292842.560        1368.344          27.000                                                                  
G09  23285253.776   122364827.173       -2651.017          38.000    23285245.434    95349187.684       -2065.770          37.000  
G11  20636043.744   108443143.995         517.944          44.000    20636030.808    84501097.613         403.857          41.000  
G13  22622817.300   118883721.102        3985.578          42.000                                                                  
G17  24878034.401           0.000       -3258.620          23.000                                                                  
G19  22348293.340   117441056.069       -3347.063          38.000                                                                  
G20  20326614.345   106817078.320         154.333          45.000                                                                  
G25  24018074.054   126215841.803        -729.928          34.000    24018074.415    98350003.721        -568.372          32.000  
G29  24606861.046   129309938.572        3773.390          38.000    24606866.000   100760935.990        2940.057          27.000  
G30  24771937.120   130177520.438        2158.518          41.000    24771940.003   101436956.676        1682.445          35.000  
C07  35925584.915   187073940.003        -697.057          42.000    35925564.463   144657355.109        -539.073          40.000  
C08  36407046.766   189581048.292         -69.118          40.000    36407025.619   146596005.435         -53.207          41.000  
C10  35974944.601   187330967.020        -388.595          42.000    35974926.735   144856113.421        -300.654          40.000  
C13  37022736.013   192787104.791          65.167          41.000    37022724.330   149075165.339          50.613          39.000  
C19  24919386.445   129761783.465        3178.502          38.000                                                                  
C20  21694989.069   112971505.838        1280.772          49.000                                                                  
C27  24706505.199   128653235.253       -2417.869          42.000                                                                  
C29  22252628.765   115875278.734        2283.945          46.000                                                                  
C30  21421780.434   111548828.912        -544.944          47.000                                                                  
C32  22735509.588   118389757.792       -1852.012          46.000                                                                  
> 2025  4 11  9 27  6.9990000  0 22                     
G05  21475258.440   112853245.945        1929.766          42.000    21475247.619    87937553.726        1503.510          36.000  
G06  21546706.283   113228704.741        -944.225          42.000    21546697.243    88230119.609        -735.994          37.000  
G07  25174357.494           0.000        1370.193          26.000                                                                  
G09  23285506.033   122366152.838       -2651.126          38.000    23285497.718    95350220.681       -2066.058          37.000  
G11  20635994.406   108442885.107         517.682          44.000    20635981.493    84500895.902         403.339          41.000  
G13  22622438.107   118881728.359        3985.445          42.000                                                                  
G17  24878343.940           0.000       -3259.156          24.000                                                                  
G19  22348611.850   117442729.580       -3347.358          37.000                                                                  
G20  20326599.628   106817001.160         154.217          45.000                                                                  
G25  24018143.637   126216206.776        -730.133          33.000    24018143.912    98350288.108        -568.560          32.000  
G29  24606502.108   129308051.975        3773.064          38.000    24606507.855   100759465.920        2940.058          28.000  
G30  24771731.804   130176441.111        2158.353          41.000    24771734.586   101436115.707        1681.734          35.000  
C07  35925651.812   187074288.585        -697.327          42.000    35925631.514   144657624.644        -539.067          40.000  
C08  36407053.367   189581082.883         -69.668          40.000    36407032.300   146596032.181         -53.762          42.000  
C10  35974981.919   187331161.331        -388.989          42.000    35974964.066   144856263.661        -300.425          41.000  
C13  37022729.800   192787072.312          64.907          41.000    37022717.994   149075140.239          50.220          39.000  
C19  24919081.187   129760194.335        3178.214          38.000                                                                  
C20  21694866.154   112970865.565        1280.423          49.000                                                                  
C27  24706737.369   128654444.267       -2418.118          42.000                                                                  
C29  22252409.396   115874136.792        2283.909          46.000                                                                  
C30  21421832.823   111549101.507        -545.289          47.000                                                                  
C32  22735687.467   118390684.004       -1852.479          47.000                                                                  
> 2025  4 11  9 27  7.4990000  0 22                     
G05  21475074.812   112852281.110        1929.515          42.000    21475064.061    87936801.881        1504.085          36.000  
G06  21546796.196   113229176.935        -944.415          42.000    21546787.177    88230487.564        -736.328          37.000  
G07  25174229.211           0.000        1370.071          26.000                                                                  
G09  23285758.271   122367478.608       -2651.428          38.000    23285749.983    95351253.757       -2066.224          37.000  
G11  20635945.143   108442626.310         517.407          44.000    20635932.194    84500694.229         403.552          41.000  
G13  22622058.927   118879735.693        3985.136          43.000                                                                  
G17  24878652.829           0.000       -3259.212          24.000                                                                  
G19  22348930.291   117444403.139       -3346.960          37.000                                                                  
G20  20326584.966   106816924.103         154.071          45.000                                                                  
G25  24018212.972   126216571.875        -730.452          33.000    24018213.385    98350572.586        -568.069          32.000  
G29  24606143.125   129306165.414        3773.089          38.000    24606149.620   100757995.838        2940.367          28.000  
G30  24771526.370   130175361.807        2158.419          41.000    24771529.201   101435274.710        1682.002          35.000  
C07  35925718.738   187074637.207        -697.290          42.000    35925698.543   144657894.214        -538.997          40.000  
C08  36407060.018   189581117.438         -69.107          40.000    36407038.912   146596058.936         -53.749          42.000  
C10  35975019.295   187331355.719        -388.977          42.000    35975001.449   144856413.968        -300.714          41.000  
C13  37022723.567   192787039.860          65.015          41.000    37022711.777   149075115.139          50.249          39.000  
C19  24918776.062   129758605.251        3178.090          38.000                                                                  
C20  21694743.290   112970225.437        1280.091          49.000                                                                  
C27  24706969.590   128655653.344       -2418.292          41.000                                                                  
C29  22252190.136   115872994.934        2283.748          46.000                                                                  
C30  21421885.306   111549374.233        -545.661          47.000                                                                  
C32  22735865.407   118391610.295       -1852.545          47.000                                                                  
> 2025  4 11  9 27  7.9990000  0 22                     
G05  21474891.259   112851316.328        1929.111          41.000    21474880.420    87936050.119        1503.227          36.000  
G06  21546886.174   113229649.164        -944.879          42.000    21546877.004    88230855.503        -736.222          37.000  
G07  25174097.552           0.000        1368.130          26.000                                                                  
G09  23286010.447   122368804.451       -2652.208          38.000    23286002.297    95352286.851       -2066.172          37.000  
G11  20635895.807   108442367.510         517.297          44.000    20635882.920    84500492.565         402.991          41.000  
G13  22621679.734   118877743.003        3985.052          43.000                                                                  
G17  24878962.564           0.000       -3259.962          25.000                                                                  
G19  22349248.801   117446076.762       -3347.798          37.000                                                                  
G20  20326570.219   106816847.057         153.695          45.000                                                                  
G25  24018282.565   126216937.060        -730.802          33.000    24018282.969    98350857.152        -569.512          32.000  
G29  24605784.147   129304278.857        3772.595          38.000    24605792.754   100756525.852        2939.655          28.000  
G30  24771320.955   130174282.485        2158.510          40.000    24771323.784   101434433.700        1681.586          35.000  
C07  35925785.704   187074985.817        -697.355          42.000    35925765.431   144658163.788        -539.283          40.000  
C08  36407066.606   189581151.977         -69.258          40.000    36407045.536   146596085.635         -53.904          42.000  
C10  35975056.607   187331550.086        -389.144          42.000    35975038.690   144856564.267        -300.802          41.000  
C13  37022717.353   192787007.361          64.738          41.000    37022705.602   149075090.028          50.007          39.000  
C19  24918470.906   129757016.206        3177.698          38.000                                                                  
C20  21694620.346   112969585.371        1279.780          49.000                                                                  
C27  24707201.712   128656862.441       -2418.463          41.000                                                                  
C29  22251970.839   115871853.095        2283.324          46.000                                                                  
C30  21421937.619   111549646.998        -545.890          47.000                                                                  
C32  22736043.367   118392536.625       -1852.951          47.000                                                                  
> 2025  4 11  9 27  8.4990000  0 22                     
G05  21474707.726   112850351.697        1928.817          41.000    21474696.892    87935298.495        1502.605          36.000  
G06  21546976.062   113230121.511        -944.885          43.000    21546966.913    88231223.572        -736.285          37.000  
G07  25173967.438           0.000        1366.324          26.000                                                                  
G09  23286262.754   122370130.446       -2652.362          38.000    23286254.585    95353320.087       -2066.484          37.000  
G11  20635846.635   108442108.881         516.907          44.000    20635833.648    84500291.035         402.710          41.000  
G13  22621300.640   118875750.419        3984.870          41.000                                                                  
G17  24879273.550           0.000       -3260.249          25.000                                                                  
G19  22349567.399   117447750.459       -3347.560          34.000                                                                  
G20  20326555.652   106816770.172         153.515          45.000                                                                  
G25  24018352.190   126217302.426        -730.444          33.000    24018352.544    98351141.878        -569.470          31.000  
G29  24605425.082   129302392.409        3772.573          39.000    24605435.007   100755055.838        2939.805          28.000  
G30  24771115.566   130173203.242        2158.429          41.000    24771118.400   101433592.721        1681.880          35.000  
C07  35925852.686   187075334.556        -697.506          42.000    35925832.337   144658433.470        -539.785          40.000  
C08  36407073.330   189581186.621         -69.447          40.000    36407052.240   146596112.411         -53.752          42.000  
C10  35975094.000   187331744.594        -389.349          42.000    35975076.007   144856714.681        -301.114          41.000  
C13  37022711.140   192786974.993          64.334          41.000    37022699.434   149075064.972          50.040          39.000  
C19  24918165.783   129755427.283        3177.971          38.000                                                                  
C20  21694497.499   112968945.522        1279.398          49.000                                                                  
C27  24707433.881   128658071.696       -2419.222          42.000                                                                  
C29  22251751.600   115870711.413        2283.189          46.000                                                                  
C30  21421990.180   111549919.986        -546.338          47.000                                                                  
C32  22736221.256   118393463.135       -1853.396          47.000                                                                  
> 2025  4 11  9 27  8.9990000  0 22                     
G05  21474524.277   112849387.378        1928.184          42.000    21474513.379    87934547.040        1502.921          36.000  
G06  21547066.063   113230594.150        -945.572          42.000    21547056.861    88231591.865        -736.833          37.000  
G07  25173838.210           0.000        1366.717          25.000                                                                  
G09  23286515.156   122371456.749       -2652.980          38.000    23286506.974    95354353.590       -2066.995          37.000  
G11  20635797.387   108441850.506         516.528          44.000    20635784.491    84500089.704         402.625          41.000  
G13  22620921.581   118873758.069        3984.639          41.000                                                                  
G17  24879583.502           0.000       -3260.419          26.000                                                                  
G19  22349885.963   117449424.517       -3348.356          35.000                                                                  
G20  20326541.102   106816693.558         152.952          45.000                                                                  
G25  24018421.942   126217668.165        -732.391          33.000    24018422.205    98351426.827        -570.619          31.000  
G29  24605066.131   129300506.210        3772.087          39.000    24605077.804   100753586.107        2939.001          28.000  
G30  24770910.241   130172124.247        2157.841          42.000    24770913.057   101432751.973        1681.181          35.000  
C07  35925919.683   187075683.553        -698.289          42.000    35925899.377   144658703.318        -539.860          40.000  
C08  36407080.032   189581221.455         -69.587          40.000    36407058.970   146596139.354         -54.221          42.000  
C10  35975131.352   187331939.338        -389.771          42.000    35975113.399   144856865.275        -301.391          40.000  
C13  37022704.924   192786942.816          64.162          41.000    37022693.380   149075040.085          49.865          39.000  
C19  24917860.683   129753838.682        3176.829          38.000                                                                  
C20  21694374.675   112968306.011        1278.688          49.000                                                                  
C27  24707666.155   128659281.186       -2419.475          41.000                                                                  
C29  22251532.377   115869570.001        2282.394          46.000                                                                  
C30  21422042.627   111550193.277        -547.047          47.000                                                                  
C32  22736399.278   118394389.913       -1854.039          46.000                                                                  
> 2025  4 11  9 27  9.4990000  0 22                     
G05  21474340.852   112848423.248        1928.670          42.000    21474329.915    87933795.777        1502.598          36.000  
G06  21547156.022   113231066.990        -945.420          42.000    21547146.820    88231960.316        -737.230          37.000  
G07  25173709.788           0.000        1367.345          25.000                                                                  
G09  23286767.481   122372783.262       -2652.780          36.000    23286759.412    95355387.250       -2067.908          37.000  
G11  20635748.315   108441592.332         516.290          44.000    20635735.294    84499888.555         401.941          41.000  
G13  22620542.442   118871766.035        3984.292          40.000                                                                  
G17  24879894.298           0.000       -3260.938          26.000                                                                  
G19  22350204.573   117451098.833       -3348.446          37.000                                                                  
G20  20326526.513   106816617.136         152.770          45.000                                                                  
G25  24018491.658   126218034.047        -731.432          33.000    24018491.873    98351711.968        -570.162          31.000  
G29  24604707.208   129298620.172        3772.150          39.000    24604720.229   100752116.456        2939.127          28.000  
G30  24770704.985   130171045.363        2157.836          42.000    24770707.704   101431911.287        1681.160          35.000  
C07  35925986.638   187076032.689        -698.233          42.000    35925966.347   144658973.323        -540.372          40.000  
C08  36407086.719   189581256.459         -69.922          40.000    36407065.688   146596166.414         -53.989          42.000  
C10  35975168.771   187332134.266        -390.218          42.000    35975150.736   144857015.995        -301.536          41.000  
C13  37022698.816   192786910.807          63.903          41.000    37022687.158   149075015.352          49.669          39.000  
C19  24917555.583   129752250.213        3176.396          39.000                                                                  
C20  21694251.856   112967666.745        1278.435          49.000                                                                  
C27  24707898.443   128660490.873       -2419.405          41.000                                                                  
C29  22251313.147   115868428.766        2282.657          46.000                                                                  
C30  21422095.218   111550466.794        -547.163          47.000                                                                  
C32  22736577.373   118395316.900       -1854.056          47.000                                                                  
> 2025  4 11  9 27  9.9990000  0 22                     
G05  21474157.468   112847459.249        1928.156          42.000    21474146.527    87933044.610        1502.502          37.000  
G06  21547246.085   113231539.854        -945.944          41.000    21547236.759    88232328.792        -737.239          38.000  
G07  25173580.330           0.000        1367.558          25.000                                                                  
G09  23287019.907   122374109.881       -2653.506          38.000    23287011.866    95356420.957       -2067.673          37.000  
G11  20635699.233   108441334.203         516.125          44.000    20635686.158    84499687.411         402.026          41.000  
G13  22620163.341   118869773.882        3983.822          40.000                                                                  
G17  24880204.199           0.000       -3261.277          26.000                                                                  
G19  22350523.186   117452773.146       -3348.824          37.000                                                                  
G20  20326511.969   106816540.775         152.636          45.000                                                                  
G25  24018561.255   126218400.106        -731.331          33.000    24018561.555    98351997.225        -570.889          31.000  
G29  24604348.308   129296734.194        3771.975          39.000    24604362.456   100750646.805        2939.208          28.000  
G30  24770499.689   130169966.483        2157.693          41.000    24770502.388   101431070.626        1681.034          35.000  
C07  35926053.670   187076381.862        -698.390          41.000    35926033.325   144659243.305        -540.041          41.000  
C08  36407093.420   189581291.456         -69.850          40.000    36407072.434   146596193.478         -53.899          42.000  
C10  35975206.275   187332329.227        -389.719          41.000    35975188.187   144857166.739        -301.645          41.000  
C13  37022692.599   192786878.767          63.878          41.000    37022681.041   149074990.581          49.573          39.000  
C19  24917250.500   129750661.801        3175.897          39.000                                                                  
C20  21694129.133   112967027.573        1278.181          48.000                                                                  
C27  24708130.727   128661700.622       -2419.349          43.000                                                                  
C29  22251094.037   115867287.601        2282.436          45.000                                                                  
C30  21422147.711   111550740.439        -547.456          47.000                                                                  
C32  22736755.400   118396243.970       -1854.320          46.000                                                                  
> 2025  4 11  9 27 10.4990000  0 22                     
G05  21473974.129   112846495.353        1926.828          44.000    21473963.096    87932293.525        1501.563          37.000  
G06  21547336.053   113232012.826        -946.551          42.000    21547326.772    88232697.331        -737.165          38.000  
G07  25173449.677           0.000        1367.814          25.000                                                                  
G09  23287272.310   122375436.605       -2653.748          38.000    23287264.271    95357454.802       -2068.228          37.000  
G11  20635650.170   108441076.185         515.247          45.000    20635637.074    84499486.371         401.361          41.000  
G13  22619784.210   118867781.799        3983.597          43.000                                                                  
G17  24880513.146           0.000       -3260.699          26.000                                                                  
G19  22350841.835   117454447.556       -3349.996          36.000                                                                  
G20  20326497.388   106816464.516         151.698          45.000                                                                  
G25  24018631.016   126218766.311        -733.418          33.000    24018631.173    98352282.567        -571.088          31.000  
G29  24603989.419   129294848.279        3771.546          39.000    24604003.911   100749177.250        2939.629          28.000  
G30  24770294.376   130168887.657        2157.001          40.000    24770297.115   101430230.026        1680.422          36.000  
C07  35926120.700   187076731.106        -699.245          40.000    35926100.432   144659513.379        -540.861          39.000  
C08  36407100.065   189581326.533         -70.932          41.000    36407079.066   146596220.575         -54.499          42.000  
C10  35975243.780   187332524.236        -390.294          41.000    35975225.610   144857317.543        -301.982          41.000  
C13  37022686.532   192786846.786          63.621          42.000    37022674.980   149074965.835          48.834          40.000  
C19  24916945.413   129749073.489        3175.739          31.000                                                                  
C20  21694006.472   112966388.602        1277.177          49.000                                                                  
C27  24708363.150   128662910.432       -2420.057          41.000                                                                  
C29  22250874.855   115866146.549        2281.507          46.000                                                                  
C30  21422200.370   111551014.187        -548.092          47.000                                                                  
C32  22736933.426   118397171.140       -1854.970          47.000                                                                  
> 2025  4 11  9 27 10.9990000  0 22                     
G05  21473790.794   112845532.003        1924.352          46.000    21473779.799    87931542.868        1499.785          39.000  
G06  21547426.124   113232486.287        -948.464          41.000    21547416.885    88233066.302        -739.614          35.000  
G07  25173318.315           0.000        1363.948          25.000                                                                  
G09  23287524.924   122376763.911       -2656.324          38.000    23287516.843    95358489.011       -2069.560          35.000  
G11  20635601.228   108440818.639         513.873          45.000    20635588.141    84499285.690         400.281          41.000  
G13  22619405.240   118865790.265        3981.446          44.000                                                                  
G17  24880822.550   130749609.478       -3262.151          25.000                                                                  
G19  22351160.575   117456122.446       -3350.290          38.000                                                                  
G20  20326483.043   106816388.745         150.019          46.000                                                                  
G25  24018700.855   126219133.073        -735.731          33.000    24018700.901    98352568.318        -572.609          31.000  
G29  24603630.649   129292962.800        3769.592          39.000    24603644.811   100747708.027        2938.076          28.000  
G30  24770089.090   130167809.258        2154.936          38.000    24770091.885   101429389.715        1679.818          34.000  
C07  35926187.880   187077080.814        -701.199          38.000    35926167.588   144659783.774        -541.926          37.000  
C08  36407106.837   189581362.001         -72.207          41.000    36407085.944   146596248.027         -56.209          42.000  
C10  35975281.325   187332719.777        -392.699          38.000    35975263.156   144857468.767        -303.669          39.000  
C13  37022680.413   192786815.235          62.276          45.000    37022668.992   149074941.442          47.585          41.000  
C19  24916640.677   129747485.751        3173.306          35.000                                                                  
C20  21693883.806   112965750.138        1275.573          47.000                                                                  
C27  24708595.549   128664120.766       -2421.735          41.000                                                                  
C29  22250655.788   115865005.965        2279.975          44.000                                                                  
C30  21422253.052   111551288.525        -550.079          47.000                                                                  
C32  22737111.645   118398098.826       -1856.710          46.000                                                                  
> 2025  4 11  9 27 11.4990000  0 22                     
G05  21473607.461   112844568.528        1925.973          37.000    21473596.444    87930792.042        1502.387          31.000  
G06  21547516.173   113232959.629        -946.526          40.000    21547506.890    88233435.116        -738.425          36.000  
G07  25173190.323   132286007.174        1367.486          25.000                                                                  
G09  23287777.391   122378091.054       -2654.546          38.000    23287769.353    95359523.172       -2068.204          37.000  
G11  20635552.155   108440560.951         515.454          44.000    20635539.066    84499084.885         401.660          37.000  
G13  22619026.257   118863798.473        3983.727          38.000                                                                  
G17  24881134.228   130751240.086       -3260.877          26.000                                                                  
G19  22351479.244   117457797.283       -3349.896          36.000                                                                  
G20  20326468.604   106816312.827         151.843          46.000                                                                  
G25  24018770.885   126219499.755        -734.503          40.000    24018770.656    98352854.020        -572.467          31.000  
G29  24603271.791   129291077.103        3771.584          35.000    24603282.300           0.000        2938.530          28.000  
G30  24769883.874   130166730.696        2156.799          38.000    24769886.561   101428549.246        1681.167          36.000  
C07  35926254.941   187077430.316        -698.859          38.000    35926234.762   144660054.053        -540.531          34.000  
C08  36407113.607   189581397.247         -70.527          41.000    36407092.706   146596275.256         -54.597          41.000  
C10  35975318.842   187332915.057        -390.825          37.000    35975300.582   144857619.759        -301.643          36.000  
C13  37022674.304   192786783.539          63.469          40.000    37022662.901   149074916.892          49.216          41.000  
C19  24916335.944   129745897.835        3173.558          31.000                                                                  
C20  21693761.107   112965111.592        1277.152          47.000                                                                  
C27  24708827.926   128665330.881       -2419.482          41.000                                                                  
C29  22250436.678   115863865.268        2281.176          42.000                                                                  
C30  21422305.581   111551562.714        -548.480          45.000                                                                  
C32  22737289.772   118399026.375       -1855.060          46.000                                                                  
> 2025  4 11  9 27 11.9990000  0 22                     
G05  21473424.136   112843604.937        1926.936          36.000    21473413.178    87930041.301        1501.213          31.000  
G06  21547606.277   113233432.935        -946.527          38.000    21547596.961    88233803.918        -737.579          34.000  
G07  25173061.480   132285323.944        1366.979          25.000                                                                  
G09  23288029.873   122379418.181       -2654.282          34.000    23288021.883    95360557.306       -2068.064          36.000  
G11  20635503.099   108440303.272         515.100          41.000    20635489.971    84498884.110         401.428          38.000  
G13  22618647.315   118861806.703        3983.687          40.000                                                                  
G17  24881445.014   130752870.648       -3260.426          26.000                                                                  
G19  22351797.977   117459472.089       -3349.290          33.000                                                                  
G20  20326454.110   106816236.873         151.742          42.000                                                                  
G25  24018840.860   126219866.484        -733.926          34.000    24018840.558    98353139.799        -571.240          31.000  
G29  24602913.005   129289191.617        3770.806          32.000    24602920.758   100744847.298        2938.393          27.000  
G30  24769678.569   130165651.954        2157.594          36.000    24769681.315   101427708.735        1680.736          34.000  
C07  35926322.043   187077779.835        -698.681          38.000    35926301.891   144660324.269        -540.399          40.000  
C08  36407120.223   189581432.460         -70.538          35.000    36407099.495   146596302.498         -54.635          40.000  
C10  35975356.300   187333110.369        -391.006          35.000    35975338.123   144857770.744        -302.129          39.000  
C13  37022668.195   192786751.737          63.497          37.000    37022656.766   149074892.323          48.793          39.000  
C19  24916031.144   129744309.725        3176.076          31.000                                                                  
C20  21693638.571   112964473.127        1277.118          44.000                                                                  
C27  24709060.363   128666541.061       -2419.683          38.000                                                                  
C29  22250217.649   115862724.642        2281.392          37.000                                                                  
C30  21422358.269   111551836.909        -548.073          42.000                                                                  
C32  22737468.001   118399953.924       -1854.952          42.000                                                                  
> 2025  4 11  9 27 12.4990000  0 22                     
G05  21473240.858   112842641.553        1926.077          39.000    21473229.832    87929290.557        1500.897          32.000  
G06  21547696.335   113233906.231        -947.169          41.000    21547687.020    88234172.723        -737.476          38.000  
G07  25172932.086   132284640.551        1366.721          25.000                                                                  
G09  23288282.361   122380745.423       -2654.736          35.000    23288274.424    95361591.511       -2068.449          37.000  
G11  20635454.036   108440045.566         515.497          45.000    20635440.911    84498683.292         401.459          40.000  
G13  22618268.306   118859814.884        3983.464          42.000                                                                  
G17  24881755.393   130754501.164       -3260.626          27.000                                                                  
G19  22352116.630   117461146.870       -3350.213          35.000                                                                  
G20  20326439.644   106816160.985         151.499          43.000                                                                  
G25  24018910.763   126220233.229        -733.219          35.000    24018910.436    98353425.629        -571.901          32.000  
G29  24602554.192   129287305.802        3770.723          36.000    24602560.701   100743377.934        2938.910          27.000  
G30  24769473.202   130164573.264        2157.418          39.000    24769476.043   101426868.184        1681.648          35.000  
C07  35926389.137   187078129.359        -699.242          41.000    35926369.027   144660594.535        -540.824          40.000  
C08  36407127.046   189581467.606         -70.418          37.000    36407106.390   146596329.675         -54.523          41.000  
C10  35975393.772   187333305.686        -391.212          39.000    35975375.606   144857921.746        -302.036          40.000  
C13  37022662.129   192786719.960          63.018          40.000    37022650.698   149074867.728          49.117          40.000  
C19  24915726.206   129742721.800        3175.657          33.000                                                                  
C20  21693515.998   112963834.739        1276.391          47.000                                                                  
C27  24709292.733   128667751.217       -2420.388          42.000                                                                  
C29  22249998.637   115861583.998        2281.017          40.000                                                                  
C30  21422410.861   111552111.252        -548.792          46.000                                                                  
C32  22737646.081   118400881.498       -1855.479          47.000                                                                  
> 2025  4 11  9 27 12.9990000  0 22                     
G05  21473057.625   112841678.458        1923.210          41.000    21473046.624    87928540.094        1498.983          33.000  
G06  21547786.501   113234379.972        -950.038          42.000    21547777.149    88234541.894        -740.954          38.000  
G07  25172801.136   132283957.138        1364.661          25.000                                                                  
G09  23288534.837   122382073.036       -2657.825          38.000    23288527.116    95362626.075       -2071.644          38.000  
G11  20635405.055   108439788.264         511.597          44.000    20635391.943    84498482.779         398.871          41.000  
G13  22617889.401   118857823.454        3980.130          42.000                                                                  
G17  24882066.838   130756131.442       -3262.310          27.000                                                                  
G19  22352435.385   117462822.067       -3353.305          38.000                                                                  
G20  20326425.287   106816085.473         148.513          43.000                                                                  
G25  24018980.881   126220600.453        -737.562          38.000    24018980.384    98353711.747        -574.821          32.000  
G29  24602195.481   129285420.512        3768.077          41.000    24602200.319   100741908.844        2937.055          27.000  
G30  24769267.970   130163494.896        2154.109          40.000    24769270.860   101426027.928        1678.706          36.000  
C07  35926456.338   187078479.225        -702.226          44.000    35926436.211   144660865.070        -543.386          41.000  
C08  36407133.981   189581503.171         -73.948          43.000    36407113.157   146596357.168         -57.082          44.000  
C10  35975431.407   187333501.349        -394.032          39.000    35975413.170   144858073.081        -305.084          41.000  
C13  37022656.033   192786688.467          60.573          40.000    37022644.754   149074843.421          46.760          40.000  
C19  24915421.279   129741134.248        3172.682          36.000                                                                  
C20  21693393.489   112963196.801        1273.118          49.000                                                                  
C27  24709525.200   128668961.770       -2423.824          44.000                                                                  
C29  22249779.571   115860443.508        2277.682          42.000                                                                  
C30  21422463.655   111552385.993        -552.228          48.000                                                                  
C32  22737824.418   118401809.536       -1858.972          47.000                                                                  
> 2025  4 11  9 27 13.4990000  0 22                     
G05  21472874.558   112840716.098        1922.422          41.000    21472863.481    87927790.228        1497.606          34.000  
G06  21547876.766   113234854.376        -950.421          45.000    21547867.438    88234911.513        -740.860          39.000  
G07  25172670.643           0.000        1363.305          26.000                                                                  
G09  23288787.616   122383401.420       -2658.008          38.000    23288779.921    95363661.136       -2071.298          38.000  
G11  20635356.238   108439531.662         511.438          45.000    20635343.087    84498282.815         398.688          40.000  
G13  22617510.640   118855832.703        3979.875          46.000                                                                  
G17  24882376.898   130757762.926       -3262.733          27.000                                                                  
G19  22352754.372   117464497.977       -3353.349          40.000                                                                  
G20  20326411.050   106816010.657         147.666          46.000                                                                  
G25  24019051.093   126220968.437        -738.119          41.000    24019050.493    98353998.471        -575.565          31.000  
G29  24601836.943   129283535.852        3767.202          42.000    24601841.178   100740440.337        2936.569          28.000  
G30  24769062.811   130162417.135        2154.024          42.000    24769065.815   101425188.156        1678.410          39.000  
C07  35926523.691   187078829.718        -702.892          46.000    35926503.582   144661136.115        -543.682          42.000  
C08  36407140.856   189581539.307         -74.528          45.000    36407120.101   146596385.112         -57.609          45.000  
C10  35975469.016   187333697.680        -394.940          40.000    35975450.859   144858224.893        -305.184          41.000  
C13  37022650.251   192786657.609          59.644          41.000    37022638.820   149074819.581          46.172          38.000  
C19  24915116.508   129739547.296        3171.993          38.000                                                                  
C20  21693270.936   112962559.568        1272.511          50.000                                                                  
C27  24709757.823   128670172.953       -2424.107          45.000                                                                  
C29  22249560.742   115859303.828        2277.247          43.000                                                                  
C30  21422516.418   111552661.439        -552.701          50.000                                                                  
C32  22738002.703   118402738.199       -1859.057          49.000                                                                  
> 2025  4 11  9 27 13.9990000  0 22                     
G05  21472691.359   112839753.555        1925.404          43.000    21472680.303    87927040.174        1500.646          35.000  
G06  21547966.968   113235328.606        -947.851          43.000    21547957.668    88235281.037        -738.685          39.000  
G07  25172541.891           0.000        1364.637          26.000                                                                  
G09  23289040.303   122384729.638       -2656.123          37.000    23289032.638    95364696.071       -2069.575          38.000  
G11  20635307.341   108439274.861         514.166          47.000    20635294.185    84498082.713         400.531          40.000  
G13  22617131.764   118853841.703        3982.510          44.000                                                                  
G17  24882687.700   130759394.394       -3263.027          27.000                                                                  
G19  22353073.253   117466173.679       -3351.085          39.000                                                                  
G20  20326396.768   106815935.641         150.679          45.000                                                                  
G25  24019121.189   126221336.229        -735.116          41.000    24019120.551    98354285.172        -574.231          30.000  
G29  24601478.260   129281650.934        3770.247          42.000    24601482.741   100738971.574        2937.216          28.000  
G30  24768857.666   130161339.161        2156.693          42.000    24768860.642   101424348.119        1680.502          38.000  
C07  35926590.982   187079179.985        -700.191          45.000    35926570.752   144661406.938        -541.382          42.000  
C08  36407147.866   189581575.180         -71.324          44.000    36407127.026   146596412.850         -55.143          44.000  
C10  35975506.550   187333893.747        -391.877          40.000    35975488.488   144858376.521        -303.160          41.000  
C13  37022644.289   192786626.509          62.911          40.000    37022632.731   149074795.516          48.309          38.000  
C19  24914811.692   129737960.213        3174.869          39.000                                                                  
C20  21693148.546   112961922.212        1275.195          50.000                                                                  
C27  24709990.477   128671383.973       -2421.342          45.000                                                                  
C29  22249341.792   115858164.000        2280.177          39.000                                                                  
C30  21422569.320   111552936.772        -550.128          49.000                                                                  
C32  22738181.022   118403666.714       -1856.555          49.000                                                                  
> 2025  4 11  9 27 14.4990000  0 22                     
G05  21472508.210   112838790.740        1925.198          41.000    21472497.130    87926289.947        1499.729          36.000  
G06  21548057.135   113235802.486        -947.837          42.000    21548047.879    88235650.329        -739.026          40.000  
G07  25172412.737           0.000        1365.052          25.000                                                                  
G09  23289292.940   122386057.541       -2655.798          37.000    23289285.285    95365730.811       -2069.793          39.000  
G11  20635258.506   108439017.764         514.117          46.000    20635245.194    84497882.389         400.610          41.000  
G13  22616752.766   118851850.402        3982.469          44.000                                                                  
G17  24882997.654   130761025.349       -3262.643          27.000                                                                  
G19  22353392.074   117467849.087       -3350.601          39.000                                                                  
G20  20326382.452   106815860.330         150.601          45.000                                                                  
G25  24019191.307   126221703.806        -735.123          41.000    24019190.439    98354571.483        -572.540          29.000  
G29  24601119.492   129279765.732        3770.506          41.000    24601126.666   100737502.592        2938.035          29.000  
G30  24768652.469   130160260.790        2156.710          41.000    24768655.387   101423507.869        1680.016          39.000  
C07  35926658.122   187079529.946        -700.146          45.000    35926637.963   144661677.545        -541.335          42.000  
C08  36407154.648   189581610.729         -71.324          44.000    36407133.667   146596440.344         -55.020          44.000  
C10  35975544.130   187334089.509        -391.154          40.000    35975525.997   144858527.904        -302.910          42.000  
C13  37022638.178   192786595.055          62.888          38.000    37022626.786   149074771.189          48.775          39.000  
C19  24914506.812   129736372.793        3174.749          37.000                                                                  
C20  21693026.115   112961284.628        1274.948          49.000                                                                  
C27  24710222.990   128672594.689       -2421.649          44.000                                                                  
C29  22249122.838   115857023.895        2279.368          39.000                                                                  
C30  21422622.133   111553211.850        -550.284          49.000                                                                  
C32  22738359.306   118404594.969       -1856.723          48.000                                                                  
> 2025  4 11  9 27 14.9990000  0 22                     
G05  21472325.062   112837828.058        1924.273          38.000    21472313.902    87925539.825        1499.936          36.000  
G06  21548147.323   113236276.457        -948.206          43.000    21548138.136    88236019.696        -739.205          43.000  
G07  25172282.486   132281226.968        1365.015          25.000                                                                  
G09  23289545.588   122387385.585       -2656.191          38.000    23289538.002    95366765.648       -2069.464          39.000  
G11  20635209.604   108438760.737         513.678          47.000    20635196.300    84497682.099         400.244          44.000  
G13  22616373.846   118849859.170        3982.485          44.000                                                                  
G17  24883303.075   130762656.189       -3261.566          29.000                                                                  
G19  22353710.927   117469524.590       -3351.455          39.000                                                                  
G20  20326368.087   106815785.126         149.875          45.000                                                                  
G25  24019261.411   126222071.546        -736.092          41.000    24019260.442    98354858.075        -573.172          29.000  
G29  24600760.807   129277880.611        3769.731          41.000    24600769.514   100736033.723        2936.788          30.000  
G30  24768447.263   130159182.480        2156.084          39.000    24768450.129   101422667.619        1680.318          40.000  
C07  35926725.347   187079879.951        -700.750          42.000    35926705.184   144661948.237        -541.792          41.000  
C08  36407161.359   189581646.324         -72.027          43.000    36407140.499   146596467.838         -55.254          44.000  
C10  35975581.779   187334285.381        -392.050          40.000    35975563.658   144858679.330        -303.243          42.000  
C13  37022632.131   192786563.633          62.221          38.000    37022620.751   149074746.952          48.165          39.000  
C19  24914202.022   129734785.533        3173.798          36.000                                                                  
C20  21692903.768   112960647.172        1274.574          48.000                                                                  
C27  24710455.623   128673805.479       -2421.590          45.000                                                                  
C29  22248903.934   115855883.905        2279.191          39.000                                                                  
C30  21422674.922   111553487.044        -550.965          48.000                                                                  
C32  22738537.645   118405523.277       -1857.032          49.000                                                                  
> 2025  4 11  9 27 15.4990000  0 22                     
G05  21472141.923   112836865.422        1925.135          38.000    21472130.779    87924789.764        1499.448          36.000  
G06  21548237.558   113236750.570        -948.599          43.000    21548228.282    88236389.085        -739.267          41.000  
G07  25172154.626   132280544.542        1364.310          25.000                                                                  
G09  23289798.271   122388713.785       -2657.277          40.000    23289790.767    95367800.631       -2070.239          39.000  
G11  20635160.811   108438503.860         513.214          47.000    20635147.376    84497481.897         400.171          42.000  
G13  22615995.019   118847868.036        3981.792          44.000                                                                  
G17  24883609.728   130764287.236       -3263.047          29.000                                                                  
G19  22354029.797   117471200.226       -3351.544          39.000                                                                  
G20  20326353.939   106815710.028         149.914          45.000                                                                  
G25  24019331.588   126222439.448        -736.511          41.000    24019330.422    98355144.776        -573.992          30.000  
G29  24600402.089   129275995.599        3769.374          41.000    24600406.451   100734564.827        2938.357          30.000  
G30  24768242.075   130158104.202        2156.573          39.000    24768244.966   101421827.439        1680.341          41.000  
C07  35926792.580   187080230.086        -700.667          43.000    35926772.412   144662218.993        -541.769          42.000  
C08  36407168.339   189581681.970         -71.867          44.000    36407147.336   146596495.437         -55.276          45.000  
C10  35975619.412   187334481.362        -392.357          40.000    35975601.319   144858830.897        -303.689          43.000  
C13  37022626.162   192786532.303          62.082          38.000    37022614.786   149074722.716          48.225          39.000  
C19  24913897.198   129733198.326        3174.403          36.000                                                                  
C20  21692781.317   112960009.945        1273.948          48.000                                                                  
C27  24710688.192   128675016.402       -2422.140          45.000                                                                  
C29  22248685.019   115854743.942        2279.269          34.000                                                                  
C30  21422727.770   111553762.412        -551.122          48.000                                                                  
C32  22738715.954   118406451.767       -1857.330          49.000                                                                  
> 2025  4 11  9 27 15.9990000  0 22                     
G05  21471958.738   112835903.047        1924.702          38.000    21471947.639    87924039.832        1500.386          36.000  
G06  21548327.821   113237224.885        -948.545          43.000    21548318.611    88236758.679        -739.147          42.000  
G07  25172026.831   132279862.197        1364.080          25.000                                                                  
G09  23290050.970   122390042.197       -2656.621          38.000    23290043.496    95368835.745       -2070.740          39.000  
G11  20635112.022   108438247.137         513.379          47.000    20635098.559    84497281.888         399.756          43.000  
G13  22615616.176   118845877.015        3982.060          43.000                                                                  
G17  24883918.060   130765918.425       -3262.410          29.000                                                                  
G19  22354348.694   117472876.104       -3351.349          40.000                                                                  
G20  20326339.790   106815635.133         149.861          45.000                                                                  
G25  24019401.809   126222807.579        -736.406          40.000    24019400.550    98355431.662        -573.923          29.000  
G29  24600043.392   129274110.702        3769.797          41.000    24600045.440   100733096.118        2937.216          31.000  
G30  24768036.907   130157026.086        2156.417          40.000    24768039.762   101420987.349        1680.115          41.000  
C07  35926860.015   187080580.377        -700.333          43.000    35926839.673   144662489.833        -541.710          41.000  
C08  36407175.160   189581717.723         -71.402          44.000    36407154.212   146596523.080         -55.019          44.000  
C10  35975657.131   187334677.456        -392.022          40.000    35975638.943   144858982.531        -303.462          42.000  
C13  37022620.039   192786501.094          62.199          39.000    37022608.851   149074698.575          48.309          39.000  
C19  24913592.528   129731611.256        3174.468          36.000                                                                  
C20  21692659.024   112959372.918        1273.987          47.000                                                                  
C27  24710920.713   128676227.474       -2422.210          45.000                                                                  
C29  22248466.071   115853604.263        2279.924          34.000                                                                  
C30  21422780.645   111554038.001        -551.256          49.000                                                                  
C32  22738894.249   118407380.436       -1857.340          48.000                                                                  
> 2025  4 11  9 27 16.4990000  0 22                     
G05  21471775.735   112834940.992        1924.737          39.000    21471764.585    87923290.160        1499.621          35.000  
G06  21548418.137   113237699.416        -948.628          42.000    21548408.888    88237128.443        -739.154          41.000  
G07  25171899.640           0.000        1364.557          25.000                                                                  
G09  23290303.877   122391370.884       -2657.086          39.000    23290296.371    95369871.098       -2070.354          39.000  
G11  20635063.226   108437990.661         513.605          46.000    20635049.792    84497082.031         400.128          43.000  
G13  22615237.369   118843886.234        3981.797          44.000                                                                  
G17  24884227.656   130767549.785       -3262.760          29.000                                                                  
G19  22354667.664   117474552.199       -3351.355          39.000                                                                  
G20  20326325.619   106815560.467         150.079          45.000                                                                  
G25  24019472.123   126223176.027        -736.549          40.000    24019470.752    98355718.692        -573.541          29.000  
G29  24599684.809   129272226.047        3769.836          41.000    24599684.549   100731627.479        2937.076          30.000  
G30  24767831.835   130155948.162        2155.917          40.000    24767834.610   101420147.410        1680.591          40.000  
C07  35926927.293   187080930.898        -700.614          43.000    35926906.938   144662760.848        -541.513          41.000  
C08  36407182.072   189581753.694         -71.371          44.000    36407161.089   146596550.893         -55.024          44.000  
C10  35975694.866   187334873.770        -391.869          40.000    35975676.619   144859134.357        -303.298          42.000  
C13  37022614.072   192786470.087          62.852          39.000    37022602.935   149074674.586          48.225          39.000  
C19  24913287.840   129730024.497        3174.084          36.000                                                                  
C20  21692536.795   112958736.214        1273.840          48.000                                                                  
C27  24711153.373   128677438.783       -2422.234          44.000                                                                  
C29  22248247.260   115852464.847        2278.864          35.000                                                                  
C30  21422833.688   111554313.885        -551.219          49.000                                                                  
C32  22739072.749   118408309.357       -1857.334          48.000                                                                  
> 2025  4 11  9 27 16.9990000  0 22                     
G05  21471592.598   112833978.468        1925.585          39.000    21471581.362    87922540.125        1500.374          35.000  
G06  21548508.330   113238173.447        -947.871          42.000    21548499.139    88237497.797        -737.979          41.000  
G07  25171769.551           0.000        1364.678          25.000                                                                  
G09  23290556.675   122392699.069       -2656.066          38.000    23290549.146    95370906.066       -2069.737          40.000  
G11  20635014.353   108437733.699         514.435          46.000    20635000.939    84496881.820         400.726          43.000  
G13  22614858.480   118841894.947        3982.804          44.000                                                                  
G17  24884535.994   130769180.539       -3259.281          29.000                                                                  
G19  22354986.480   117476227.790       -3350.899          39.000                                                                  
G20  20326311.359   106815485.311         150.653          45.000                                                                  
G25  24019542.323   126223544.009        -735.457          41.000    24019540.844    98356005.440        -572.927          29.000  
G29  24599326.048   129270340.887        3770.338          42.000    24599325.527   100730158.561        2937.405          30.000  
G30  24767626.614   130154869.662        2157.453          41.000    24767629.335   101419307.087        1680.785          40.000  
C07  35926994.474   187081280.846        -699.554          43.000    35926974.208   144663031.482        -541.023          42.000  
C08  36407189.063   189581789.099         -70.116          43.000    36407167.876   146596578.290         -54.187          44.000  
C10  35975732.448   187335069.608        -391.145          40.000    35975714.147   144859285.753        -302.430          42.000  
C13  37022607.924   192786438.592          63.402          39.000    37022596.904   149074650.211          48.665          39.000  
C19  24912982.949   129728437.261        3174.659          38.000                                                                  
C20  21692414.413   112958099.075        1274.418          48.000                                                                  
C27  24711385.978   128678649.639       -2421.559          45.000                                                                  
C29  22248028.279   115851324.831        2280.965          37.000                                                                  
C30  21422886.496   111554589.317        -550.400          48.000                                                                  
C32  22739251.007   118409237.807       -1856.479          48.000                                                                  
> 2025  4 11  9 27 17.4990000  0 22                     
G05  21471409.467   112833015.965        1924.044          39.000    21471398.252    87921790.144        1498.957          36.000  
G06  21548598.586   113238647.519        -948.885          43.000    21548589.387    88237867.247        -740.014          39.000  
G07  25171638.955           0.000        1365.230          25.000                                                                  
G09  23290809.354   122394027.336       -2657.165          38.000    23290801.917    95371941.052       -2070.624          39.000  
G11  20634965.540   108437476.753         512.994          47.000    20634952.027    84496681.571         399.866          43.000  
G13  22614479.485   118839903.627        3981.741          46.000                                                                  
G17  24884845.259   130770811.365       -3262.203          29.000                                                                  
G19  22355305.334   117477903.419       -3352.065          39.000                                                                  
G20  20326297.032   106815410.184         149.137          45.000                                                                  
G25  24019612.476   126223912.055        -737.216          40.000    24019610.949    98356292.226        -574.625          30.000  
G29  24598967.192   129268455.639        3769.510          40.000    24598965.775   100728689.539        2937.705          30.000  
G30  24767421.302   130153791.112        2156.409          40.000    24767424.114   101418466.658        1680.120          39.000  
C07  35927061.601   187081630.807        -700.792          43.000    35927041.461   144663302.104        -542.067          42.000  
C08  36407195.813   189581824.492         -71.804          43.000    36407174.630   146596605.647         -55.426          44.000  
C10  35975770.081   187335265.418        -392.743          40.000    35975751.782   144859437.192        -303.708          42.000  
C13  37022601.844   192786407.008          62.271          39.000    37022590.835   149074625.793          48.017          41.000  
C19  24912678.175   129726849.959        3173.278          38.000                                                                  
C20  21692292.101   112957462.002        1273.041          48.000                                                                  
C27  24711618.648   128679860.481       -2422.594          44.000                                                                  
C29  22247809.372   115850184.897        2279.073          40.000                                                                  
C30  21422939.469   111554864.825        -552.064          49.000                                                                  
C32  22739429.350   118410166.295       -1858.004          49.000                                                                  
> 2025  4 11  9 27 17.9990000  0 22                     
G05  21471226.315   112832053.634        1923.645          41.000    21471215.141    87921040.284        1498.719          36.000  
G06  21548688.837   113239121.751        -949.707          44.000    21548679.613    88238236.756        -740.268          40.000  
G07  25171510.731           0.000        1365.302          26.000                                                                  
G09  23291062.200   122395355.851       -2658.033          38.000    23291054.711    95372976.223       -2071.130          40.000  
G11  20634916.645   108437219.957         512.671          47.000    20634903.192    84496481.495         399.255          43.000  
G13  22614100.532   118837912.468        3981.215          46.000                                                                  
G17  24885155.141   130772442.334       -3262.164          29.000                                                                  
G19  22355624.309   117479579.220       -3352.808          39.000                                                                  
G20  20326282.744   106815335.207         149.095          44.000                                                                  
G25  24019682.629   126224280.314        -737.179          40.000    24019681.120    98356579.110        -573.294          30.000  
G29  24598608.467   129266570.600        3769.438          41.000    24598606.030   100727220.691        2937.045          30.000  
G30  24767216.021   130152712.697        2156.268          41.000    24767218.862   101417626.362        1679.615          39.000  
C07  35927128.864   187081980.936        -701.379          44.000    35927108.642   144663572.827        -542.117          42.000  
C08  36407202.560   189581859.990         -72.110          43.000    36407181.500   146596633.086         -55.784          44.000  
C10  35975807.582   187335461.336        -392.815          40.000    35975789.360   144859588.694        -303.677          42.000  
C13  37022595.909   192786375.551          62.138          39.000    37022584.822   149074601.465          48.029          41.000  
C19  24912373.384   129725262.854        3173.433          39.000                                                                  
C20  21692169.720   112956825.145        1272.600          49.000                                                                  
C27  24711851.332   128681071.465       -2423.089          45.000                                                                  
C29  22247590.527   115849045.111        2278.864          40.000                                                                  
C30  21422992.446   111555140.519        -552.416          49.000                                                                  
C32  22739607.589   118411094.961       -1858.337          48.000                                                                  
> 2025  4 11  9 27 18.4990000  0 22                     
G05  21471043.138   112831091.075        1925.392          42.000    21471031.991    87920290.217        1500.599          36.000  
G06  21548779.015   113239595.706        -947.645          44.000    21548769.831    88238606.071        -738.745          40.000  
G07  25171381.801   132276493.222        1364.904          26.000                                                                  
G09  23291314.958   122396684.079       -2656.421          38.000    23291307.448    95374011.225       -2069.997          39.000  
G11  20634867.700   108436962.932         514.154          47.000    20634854.290    84496281.209         400.403          43.000  
G13  22613721.534   118835921.029        3983.002          45.000                                                                  
G17  24885465.892   130774073.035       -3261.754          29.000                                                                  
G19  22355943.151   117481254.719       -3350.370          39.000                                                                  
G20  20326268.388   106815260.007         150.539          44.000                                                                  
G25  24019752.744   126224648.417        -735.825          40.000    24019751.180    98356866.009        -574.130          29.000  
G29  24598249.641   129264685.294        3770.600          42.000    24598247.745   100725751.601        2938.280          30.000  
G30  24767010.726   130151633.962        2158.238          40.000    24767013.521   101416785.812        1681.458          39.000  
C07  35927195.974   187082330.771        -699.476          44.000    35927175.797   144663843.327        -540.717          43.000  
C08  36407209.384   189581895.171         -70.054          43.000    36407188.245   146596660.287         -54.185          44.000  
C10  35975845.132   187335657.020        -391.272          41.000    35975826.940   144859739.997        -302.745          41.000  
C13  37022589.809   192786343.798          63.672          40.000    37022578.673   149074576.907          48.986          41.000  
C19  24912068.514   129723675.490        3175.301          39.000                                                                  
C20  21692047.294   112956188.109        1274.231          50.000                                                                  
C27  24712083.975   128682282.175       -2421.339          44.000                                                                  
C29  22247371.650   115847905.100        2280.330          40.000                                                                  
C30  21423045.354   111555416.030        -550.864          49.000                                                                  
C32  22739785.913   118412023.407       -1856.787          48.000                                                                  
> 2025  4 11  9 27 18.9990000  0 22                     
G05  21470859.951   112830128.363        1925.154          41.000    21470848.806    87919540.087        1500.040          36.000  
G06  21548869.233   113240069.570        -947.410          44.000    21548860.007    88238975.291        -738.201          40.000  
G07  25171254.070   132275809.947        1366.397          26.000                                                                  
G09  23291567.662   122398012.248       -2656.690          38.000    23291560.189    95375046.162       -2069.805          39.000  
G11  20634818.735   108436705.754         514.105          47.000    20634805.323    84496080.794         400.641          43.000  
G13  22613342.587   118833929.480        3983.690          45.000                                                                  
G17  24885776.628   130775703.490       -3260.191          30.000                                                                  
G19  22356261.888   117482930.220       -3350.272          39.000                                                                  
G20  20326254.085   106815184.647         150.482          44.000                                                                  
G25  24019822.961   126225016.441        -736.550          40.000    24019821.231    98357152.683        -572.418          29.000  
G29  24597890.804   129262799.768        3770.785          42.000    24597887.524   100724282.368        2938.832          31.000  
G30  24766805.345   130150555.127        2158.328          40.000    24766808.141   101415945.151        1682.317          38.000  
C07  35927263.031   187082680.467        -699.222          45.000    35927242.929   144664113.734        -540.531          43.000  
C08  36407216.082   189581930.181         -70.175          43.000    36407195.022   146596687.352         -54.318          44.000  
C10  35975882.634   187335852.546        -390.760          41.000    35975864.515   144859891.195        -302.358          41.000  
C13  37022583.624   192786311.840          63.501          40.000    37022572.505   149074552.191          49.579          41.000  
C19  24911763.616   129722088.058        3175.281          38.000                                                                  
C20  21691924.886   112955551.035        1274.236          50.000                                                                  
C27  24712316.567   128683492.856       -2420.507          44.000                                                                  
C29  22247152.779   115846764.921        2279.957          40.000                                                                  
C30  21423098.269   111555691.485        -550.871          49.000                                                                  
C32  22739964.094   118412951.744       -1856.678          48.000                                                                  
> 2025  4 11  9 27 19.4990000  0 22                     
G05  21470676.779   112829165.532        1926.925          40.000    21470665.593    87918789.806        1501.758          36.000  
G06  21548959.344   113240543.178        -946.260          43.000    21548950.112    88239344.355        -737.306          39.000  
G07  25171122.614   132275126.935        1365.990          25.000                                                                  
G09  23291820.355   122399340.182       -2654.753          37.000    23291812.928    95376080.911       -2068.469          39.000  
G11  20634769.772   108436448.371         515.588          46.000    20634756.360    84495880.251         401.917          43.000  
G13  22612963.550   118831937.641        3984.818          45.000                                                                  
G17  24886087.490   130777333.668       -3259.049          29.000                                                                  
G19  22356580.660   117484605.503       -3350.005          39.000                                                                  
G20  20326239.735   106815109.097         152.196          44.000                                                                  
G25  24019893.093   126225384.296        -735.122          39.000    24019891.379    98357439.490        -572.947          29.000  
G29  24597531.982   129260914.048        3772.667          42.000    24597528.727   100722812.922        2940.521          31.000  
G30  24766599.879   130149475.929        2159.420          40.000    24766602.761   101415104.255        1682.843          38.000  
C07  35927330.148   187083029.886        -697.453          44.000    35927310.021   144664383.967        -539.529          43.000  
C08  36407222.967   189581964.922         -68.702          43.000    36407201.803   146596714.232         -52.985          44.000  
C10  35975920.007   187336047.906        -389.609          41.000    35975902.036   144860042.253        -301.289          41.000  
C13  37022577.352   192786279.644          65.561          40.000    37022566.373   149074527.308          50.638          41.000  
C19  24911458.682   129720500.379        3176.632          38.000                                                                  
C20  21691802.597   112954913.785        1275.522          49.000                                                                  
C27  24712548.996   128684703.239       -2419.415          44.000                                                                  
C29  22246933.915   115845624.593        2281.504          40.000                                                                  
C30  21423151.183   111555966.715        -549.136          48.000                                                                  
C32  22740142.347   118413879.846       -1855.269          49.000                                                                  
> 2025  4 11  9 27 19.9990000  0 22                     
G05  21470493.492   112828202.500        1925.172          38.000    21470482.345    87918039.393        1500.672          36.000  
G06  21549049.560   113241016.692        -947.333          43.000    21549040.204    88239713.357        -738.921          39.000  
G07  25170993.874           0.000        1367.018          25.000                                                                  
G09  23292073.091   122400668.076       -2656.249          37.000    23292065.646    95377115.653       -2070.052          39.000  
G11  20634720.777   108436190.879         514.740          47.000    20634707.353    84495679.614         400.958          43.000  
G13  22612584.453   118829945.703        3984.074          46.000                                                                  
G17  24886397.781   130778963.784       -3260.595          29.000                                                                  
G19  22356899.360   117486280.601       -3350.521          39.000                                                                  
G20  20326225.233   106815033.425         150.995          43.000                                                                  
G25  24019963.172   126225752.059        -735.474          39.000    24019961.468    98357726.137        -573.730          30.000  
G29  24597173.224   129259028.221        3771.215          40.000    24597168.934   100721343.506        2939.095          26.000  
G30  24766394.425   130148396.601        2158.408          40.000    24766397.321   101414263.170        1681.485          38.000  
C07  35927397.290   187083379.275        -698.970          41.000    35927377.180   144664654.118        -540.655          42.000  
C08  36407229.513   189581999.536         -69.541          45.000    36407208.441   146596740.964         -53.790          45.000  
C10  35975957.509   187336243.111        -390.620          41.000    35975939.456   144860193.193        -302.228          42.000  
C13  37022571.275   192786247.264          63.872          41.000    37022559.977   149074502.295          49.687          41.000  
C19  24911153.733   129718912.550        3175.230          37.000                                                                  
C20  21691680.133   112954276.529        1274.345          48.000                                                                  
C27  24712781.432   128685913.548       -2421.494          44.000                                                                  
C29  22246714.968   115844484.106        2278.635          36.000                                                                  
C30  21423204.037   111556241.961        -550.789          49.000                                                                  
C32  22740320.657   118414807.895       -1856.471          49.000                                                                  
> 2025  4 11  9 27 20.4990000  0 22                     
G05  21470310.247   112827239.642        1925.784          43.000    21470299.115    87917289.072        1500.661          40.000  
G06  21549139.620   113241490.258        -947.312          42.000    21549130.381    88240082.354        -738.323          42.000  
G07  25170863.798   132273760.711        1366.296          25.000                                                                  
G09  23292325.744   122401996.070       -2656.401          37.000    23292318.371    95378150.475       -2069.814          39.000  
G11  20634671.631   108435933.443         514.801          47.000    20634658.395    84495479.022         401.221          43.000  
G13  22612205.330   118827953.730        3983.681          44.000                                                                  
G17  24886707.205   130780593.853       -3260.886          29.000                                                                  
G19  22357218.194   117487955.783       -3350.521          36.000                                                                  
G20  20326210.945   106814957.870         150.752          43.000                                                                  
G25  24020033.268   126226119.968        -735.712          39.000    24020031.404    98358012.802        -574.420          31.000  
G29  24596814.367   129257142.416        3770.910          40.000    24596809.881   100719873.914        2939.401          27.000  
G30  24766189.042   130147317.250        2159.065          40.000    24766191.952   101413422.145        1682.103          38.000  
C07  35927464.425   187083728.553        -698.479          42.000    35927444.216   144664924.214        -540.281          42.000  
C08  36407236.079   189582034.092         -69.000          44.000    36407215.003   146596767.737         -53.639          45.000  
C10  35975995.012   187336438.255        -390.188          41.000    35975977.008   144860344.117        -301.980          42.000  
C13  37022565.151   192786214.932          64.727          43.000    37022553.707   149074477.283          49.791          44.000  
C19  24910848.870   129717324.804        3174.643          34.000                                                                  
C20  21691557.794   112953639.301        1274.158          49.000                                                                  
C27  24713013.882   128687123.844       -2420.696          45.000                                                                  
C29  22246495.962   115843343.632        2280.796          36.000                                                                  
C30  21423256.926   111556517.257        -550.705          49.000                                                                  
C32  22740498.969   118415735.998       -1856.185          50.000                                                                  
> 2025  4 11  9 27 20.9990000  0 22                     
G05  21470126.988   112826276.809        1925.593          44.000    21470115.898    87916538.838        1500.511          40.000  
G06  21549229.825   113241963.889        -947.380          42.000    21549220.541    88240451.335        -737.837          42.000  
G07  25170735.212   132273077.671        1365.847          25.000                                                                  
G09  23292578.455   122403324.207       -2656.475          37.000    23292571.014    95379185.262       -2069.988          39.000  
G11  20634622.628   108435676.025         514.954          47.000    20634609.357    84495278.467         401.221          43.000  
G13  22611826.260   118825961.805        3983.961          43.000                                                                  
G17  24887017.152   130782223.750       -3259.359          29.000                                                                  
G19  22357536.908   117489631.084       -3350.635          37.000                                                                  
G20  20326196.629   106814882.297         151.251          44.000                                                                  
G25  24020103.381   126226487.979        -736.223          40.000    24020101.472    98358299.518        -573.773          32.000  
G29  24596455.499   129255256.573        3771.838          40.000    24596450.213   100718404.454        2939.553          28.000  
G30  24765983.679   130146237.903        2158.502          39.000    24765986.530   101412581.096        1682.137          38.000  
C07  35927531.559   187084077.910        -698.507          41.000    35927511.367   144665194.348        -540.070          42.000  
C08  36407242.832   189582068.661         -69.275          42.000    36407221.640   146596794.456         -53.392          45.000  
C10  35976032.363   187336633.473        -390.265          41.000    35976014.628   144860495.066        -301.924          42.000  
C13  37022558.902   192786182.567          64.907          43.000    37022547.558   149074452.245          49.795          45.000  
C19  24910543.935   129715737.146        3175.815          30.000                                                                  
C20  21691435.551   112953002.206        1274.112          49.000                                                                  
C27  24713246.322   128688334.195       -2420.702          44.000                                                                  
C29  22246276.995   115842203.263        2280.698          38.000                                                                  
C30  21423309.777   111556792.629        -550.835          48.000                                                                  
C32  22740677.214   118416664.153       -1856.086          48.000                                                                  
> 2025  4 11  9 27 21.4990000  0 22                     
G05  21469943.810   112825314.207        1924.235          39.000    21469932.777    87915788.805        1499.168          36.000  
G06  21549319.994   113242437.660        -948.030          41.000    21549310.806    88240820.668        -740.421          38.000  
G07  25170603.532           0.000        1366.068          24.000                                                                  
G09  23292831.199   122404652.413       -2657.138          37.000    23292823.814    95380220.286       -2070.320          37.000  
G11  20634573.673   108435418.820         513.965          45.000    20634560.434    84495078.023         401.147          43.000  
G13  22611447.170   118823970.108        3983.227          42.000                                                                  
G17  24887327.004   130783853.972       -3260.085          29.000                                                                  
G19  22357855.604   117491306.405       -3351.140          37.000                                                                  
G20  20326182.278   106814806.955         150.474          40.000                                                                  
G25  24020173.441   126226856.215        -737.247          38.000    24020171.596    98358586.390        -574.259          31.000  
G29  24596096.663   129253370.908        3770.781          39.000    24596091.525   100716935.136        2938.304          27.000  
G30  24765778.313   130145158.650        2158.218          39.000    24765781.220   101411740.159        1681.654          33.000  
C07  35927598.729   187084427.476        -699.820          41.000    35927578.479   144665464.614        -541.077          41.000  
C08  36407249.395   189582103.402         -70.614          43.000    36407228.247   146596821.242         -53.909          44.000  
C10  35976069.937   187336828.940        -391.323          38.000    35976052.110   144860646.186        -302.822          41.000  
C13  37022552.828   192786150.344          63.551          41.000    37022541.401   149074427.320          49.117          41.000  
C19  24910239.130   129714149.675        3173.234          30.000                                                                  
C20  21691313.309   112952365.429        1272.679          46.000                                                                  
C27  24713478.827   128689544.768       -2421.585          43.000                                                                  
C29  22246058.052   115841063.190        2278.582          38.000                                                                  
C30  21423362.701   111557068.251        -551.755          47.000                                                                  
C32  22740855.535   118417592.558       -1857.889          47.000                                                                  
> 2025  4 11  9 27 21.9990000  0 22                     
G05  21469760.713   112824351.934        1924.475          41.000    21469749.683    87915038.939        1499.966          36.000  
G06  21549410.272   113242911.755        -948.304          43.000    21549400.988    88241189.985        -738.853          40.000  
G07  25170474.585           0.000        1365.208          26.000                                                                  
G09  23293084.067   122405980.924       -2656.763          37.000    23293076.591    95381255.515       -2070.786          39.000  
G11  20634524.766   108435161.910         513.788          45.000    20634511.532    84494877.834         400.427          43.000  
G13  22611068.122   118821978.545        3983.074          43.000                                                                  
G17  24887637.021   130785484.389       -3260.619          29.000                                                                  
G19  22358174.467   117492982.166       -3349.739          37.000                                                                  
G20  20326167.986   106814731.879         150.266          43.000                                                                  
G25  24020243.609   126227224.833        -737.139          39.000    24020241.747    98358873.639        -574.707          35.000  
G29  24595737.902   129251485.547        3771.240          41.000    24595732.056   100715466.002        2939.058          28.000  
G30  24765572.950   130144079.658        2158.548          39.000    24765575.874   101410899.429        1681.979          34.000  
C07  35927665.831   187084777.203        -699.865          40.000    35927645.614   144665735.089        -541.018          38.000  
C08  36407255.964   189582138.268         -69.906          44.000    36407234.931   146596848.276         -54.054          43.000  
C10  35976107.636   187337024.671        -391.304          35.000    35976089.624   144860797.510        -302.053          38.000  
C13  37022546.693   192786118.337          64.114          41.000    37022535.237   149074402.586          49.370          42.000  
C19  24909934.315   129712562.288        3174.549          39.000                                                                  
C20  21691191.089   112951728.923        1272.653          46.000                                                                  
C27  24713711.290   128690755.576       -2421.965          44.000                                                                  
C29  22245839.069   115839923.229        2280.570          37.000                                                                  
C30  21423415.780   111557344.183        -552.026          47.000                                                                  
C32  22741033.861   118418521.203       -1857.225          48.000                                                                  
> 2025  4 11  9 27 22.4990000  0 22                     
G05  21469577.626   112823389.772        1923.881          44.000    21469566.595    87914289.260        1499.270          41.000  
G06  21549500.486   113243385.946        -948.604          42.000    21549491.225    88241559.504        -739.314          40.000  
G07  25170346.377           0.000        1364.970          26.000                                                                  
G09  23293336.849   122407309.713       -2658.427          38.000    23293329.493    95382290.910       -2071.367          39.000  
G11  20634475.973   108434905.106         513.171          46.000    20634462.701    84494677.725         399.878          43.000  
G13  22610689.160   118819987.187        3983.081          42.000                                                                  
G17  24887946.701   130787114.935       -3260.736          28.000                                                                  
G19  22358493.403   117494658.066       -3351.988          39.000                                                                  
G20  20326153.800   106814656.926         149.661          42.000                                                                  
G25  24020313.844   126227593.564        -737.856          39.000    24020311.944    98359161.009        -575.410          37.000  
G29  24595379.168   129249600.248        3769.628          41.000    24595373.640           0.000        2936.409          28.000  
G30  24765367.708   130143000.726        2157.635          40.000    24765370.581   101410058.711        1681.195          34.000  
C07  35927733.030   187085127.068        -700.124          39.000    35927712.880   144666005.626        -541.586          38.000  
C08  36407262.811   189582173.287         -69.995          43.000    36407241.776   146596875.362         -54.474          44.000  
C10  35976145.232   187337220.388        -391.870          36.000    35976127.288   144860948.860        -303.022          40.000  
C13  37022540.594   192786086.445          63.204          42.000    37022529.126   149074377.911          49.175          43.000  
C19  24909629.451   129710975.206        3173.738          31.000                                                                  
C20  21691068.877   112951092.588        1272.344          47.000                                                                  
C27  24713943.816   128691966.503       -2422.348          44.000                                                                  
C29  22245620.146   115838783.561        2278.274          38.000                                                                  
C30  21423468.722   111557620.283        -552.319          47.000                                                                  
C32  22741212.176   118419450.008       -1857.866          48.000                                                                  
> 2025  4 11  9 27 22.9990000  0 22                     
G05  21469394.534   112822427.707        1924.195          45.000    21469383.411    87913539.611        1499.376          41.000  
G06  21549590.807   113243860.234        -948.726          43.000    21549581.555    88241929.045        -739.302          40.000  
G07  25170217.355   132270347.504        1364.343          26.000                                                                  
G09  23293589.698   122408638.483       -2657.219          36.000    23293582.375    95383326.317       -2071.381          39.000  
G11  20634427.095   108434648.358         513.239          46.000    20634413.878    84494477.658         400.049          43.000  
G13  22610310.224   118817995.827        3982.708          44.000                                                                  
G17  24888256.691   130788745.494       -3261.361          28.000                                                                  
G19  22358812.397   117496333.999       -3352.119          37.000                                                                  
G20  20326139.512   106814582.016         149.446          42.000                                                                  
G25  24020384.143   126227962.474        -738.267          39.000    24020382.139    98359448.441        -575.133          35.000  
G29  24595020.383   129247714.979        3770.496          42.000    24595018.057   100712487.025        2937.055          29.000  
G30  24765162.423   130141921.807        2157.626          40.000    24765165.277   101409217.976        1681.908          35.000  
C07  35927800.177   187085476.944        -699.909          41.000    35927780.057   144666276.162        -541.024          38.000  
C08  36407269.366   189582208.283         -70.165          44.000    36407248.403   146596902.430         -54.281          44.000  
C10  35976182.790   187337416.080        -391.791          40.000    35976164.902   144861100.205        -302.914          41.000  
C13  37022534.558   192786054.542          63.741          43.000    37022522.934   149074353.253          49.155          43.000  
C19  24909324.648   129709388.144        3174.269          36.000                                                                  
C20  21690946.745   112950456.402        1272.319          49.000                                                                  
C27  24714176.425   128693177.478       -2421.823          44.000                                                                  
C29  22245401.204   115837643.841        2278.733          36.000                                                                  
C30  21423521.848   111557896.509        -552.699          49.000                                                                  
C32  22741390.544   118420378.864       -1857.649          49.000                                                                  
> 2025  4 11  9 27 23.4990000  0 22                     
G05  21469211.497   112821465.791        1923.827          44.000    21469200.402    87912790.063        1498.926          41.000  
G06  21549681.070   113244334.626        -948.872          43.000    21549671.838    88242298.709        -739.091          40.000  
G07  25170086.176   132269665.260        1364.260          26.000                                                                  
G09  23293842.592   122409967.492       -2657.286          38.000    23293835.316    95384361.915       -2071.757          39.000  
G11  20634378.324   108434391.746         513.184          46.000    20634365.031    84494277.717         399.756          43.000  
G13  22609931.307   118816004.578        3982.369          43.000                                                                  
G17  24888566.449   130790376.156       -3262.335          27.000                                                                  
G19  22359131.389   117498010.125       -3352.177          37.000                                                                  
G20  20326125.323   106814507.302         149.445          42.000                                                                  
G25  24020454.476   126228331.568        -738.536          37.000    24020452.379    98359735.997        -575.459          35.000  
G29  24594661.565   129245829.827        3770.474          42.000    24594658.083           0.000        2938.867          29.000  
G30  24764957.219   130140842.971        2157.250          39.000    24764960.012   101408377.391        1680.799          35.000  
C07  35927867.473   187085826.955        -700.166          43.000    35927847.238   144666546.817        -541.307          40.000  
C08  36407276.010   189582243.379         -70.107          43.000    36407255.193   146596929.562         -54.268          44.000  
C10  35976220.431   187337611.981        -391.892          42.000    35976202.503   144861251.693        -303.116          41.000  
C13  37022528.410   192786022.728          63.438          43.000    37022516.790   149074328.651          49.147          42.000  
C19  24909019.885   129707801.200        3173.789          37.000                                                                  
C20  21690824.636   112949820.426        1271.745          50.000                                                                  
C27  24714409.019   128694388.622       -2422.275          44.000                                                                  
C29  22245182.415   115836504.231        2279.555          36.000                                                                  
C30  21423575.099   111558172.922        -552.791          49.000                                                                  
C32  22741569.057   118421307.918       -1858.158          48.000                                                                  
> 2025  4 11  9 27 23.9990000  0 22                     
G05  21469028.506   112820503.959        1923.507          45.000    21469017.392    87912040.584        1498.920          41.000  
G06  21549771.353   113244809.113        -949.204          43.000    21549762.103    88242668.437        -739.713          40.000  
G07  25169956.996   132268983.090        1364.748          27.000                                                                  
G09  23294095.477   122411296.652       -2658.412          37.000    23294088.272    95385397.589       -2071.412          38.000  
G11  20634329.524   108434135.195         513.007          45.000    20634316.234    84494077.801         399.701          43.000  
G13  22609552.377   118814013.354        3982.367          45.000                                                                  
G17  24888876.620   130792006.754       -3261.108          26.000                                                                  
G19  22359450.415   117499686.202       -3352.359          39.000                                                                  
G20  20326111.161   106814432.629         148.933          42.000                                                                  
G25  24020524.833   126228700.731        -738.677          37.000    24020522.600    98360023.647        -575.573          35.000  
G29  24594302.872   129243944.728        3770.193          42.000    24594299.522   100709544.117        2938.022          29.000  
G30  24764751.997   130139764.070        2157.509          41.000    24764754.729   101407536.744        1681.521          38.000  
C07  35927934.689   187086176.998        -700.083          43.000    35927914.451   144666817.483        -541.296          40.000  
C08  36407282.813   189582278.481         -70.469          43.000    36407261.883   146596956.699         -54.222          44.000  
C10  35976258.057   187337807.940        -391.884          42.000    35976240.034   144861403.205        -303.175          42.000  
C13  37022522.240   192785990.917          63.416          43.000    37022510.812   149074304.052          49.022          43.000  
C19  24908715.062   129706214.336        3173.347          35.000                                                                  
C20  21690702.571   112949184.556        1271.431          49.000                                                                  
C27  24714641.658   128695599.798       -2422.227          44.000                                                                  
C29  22244963.597   115835364.769        2278.865          37.000                                                                  
C30  21423628.158   111558449.428        -553.236          49.000                                                                  
C32  22741747.422   118422237.030       -1858.493          49.000                                                                  
> 2025  4 11  9 27 24.4990000  0 22                     
G05  21468845.552   112819542.244        1923.361          46.000    21468834.362    87911291.207        1498.087          41.000  
G06  21549861.713   113245283.635        -949.479          43.000    21549852.330    88243038.205        -739.928          40.000  
G07  25169827.420   132268301.093        1363.736          28.000                                                                  
G09  23294348.271   122412625.767       -2658.848          35.000    23294341.187    95386433.277       -2071.504          38.000  
G11  20634280.695   108433878.742         512.720          45.000    20634267.466    84493877.971         399.487          43.000  
G13  22609173.331   118812022.188        3982.372          45.000                                                                  
G17  24889186.809           0.000       -3261.886          25.000                                                                  
G19  22359769.376   117501362.438       -3352.820          37.000                                                                  
G20  20326096.922   106814358.030         148.751          42.000                                                                  
G25  24020595.209   126229070.037        -738.921          38.000    24020592.875    98360311.410        -575.729          35.000  
G29  24593944.099   129242059.693        3769.949          42.000    24593939.528   100708075.233        2937.657          29.000  
G30  24764546.692   130138685.262        2157.337          41.000    24764549.411   101406696.109        1681.244          37.000  
C07  35928002.003   187086527.103        -700.593          43.000    35927981.727   144667088.218        -541.516          40.000  
C08  36407289.525   189582313.615         -70.458          44.000    36407268.582   146596983.872         -54.562          44.000  
C10  35976295.690   187338003.914        -391.975          43.000    35976277.648   144861554.764        -303.422          42.000  
C13  37022516.267   192785959.143          63.068          41.000    37022504.636   149074279.484          48.942          43.000  
C19  24908410.415   129704627.559        3172.639          34.000                                                                  
C20  21690580.589   112948548.814        1271.062          49.000                                                                  
C27  24714874.336   128696811.074       -2423.139          44.000                                                                  
C29  22244744.867   115834225.338        2278.652          38.000                                                                  
C30  21423681.398   111558726.064        -553.627          49.000                                                                  
C32  22741925.841   118423166.228       -1858.647          48.000                                                                  
> 2025  4 11  9 27 24.9990000  0 22                     
G05  21468662.533   112818580.697        1922.927          46.000    21468651.354    87910541.966        1498.322          41.000  
G06  21549952.180   113245758.384        -949.689          44.000    21549942.653    88243408.127        -740.033          40.000  
G07  25169696.990   132267619.124        1363.655          28.000                                                                  
G09  23294601.186   122413955.204       -2658.906          37.000    23294594.205    95387469.199       -2072.239          39.000  
G11  20634231.874   108433622.480         512.329          47.000    20634218.709    84493678.265         399.158          44.000  
G13  22608794.400   118810031.206        3981.710          44.000                                                                  
G17  24889497.094   130795268.234       -3261.783          25.000                                                                  
G19  22360088.433   117503038.945       -3353.350          39.000                                                                  
G20  20326082.692   106814283.635         148.478          43.000                                                                  
G25  24020665.641   126229439.636        -739.305          38.000    24020663.259    98360599.419        -576.792          36.000  
G29  24593585.408   129240174.807        3769.308          40.000    24593581.154   100706606.479        2936.920          28.000  
G30  24764341.357   130137606.581        2157.443          41.000    24764344.124   101405855.549        1681.307          37.000  
C07  35928069.333   187086877.370        -700.839          43.000    35928048.861   144667359.084        -541.931          41.000  
C08  36407296.320   189582348.868         -70.554          44.000    36407275.445   146597011.135         -54.675          43.000  
C10  35976333.328   187338200.097        -392.445          43.000    35976315.346   144861706.435        -303.474          42.000  
C13  37022510.122   192785927.492          63.164          43.000    37022498.543   149074255.008          48.967          43.000  
C19  24908105.668   129703040.869        3171.901          31.000                                                                  
C20  21690458.632   112947913.338        1270.555          49.000                                                                  
C27  24715106.943   128698022.465       -2422.937          43.000                                                                  
C29  22244526.237   115833086.407        2276.660          33.000                                                                  
C30  21423734.668   111559002.929        -554.103          47.000                                                                  
C32  22742104.281   118424095.654       -1859.102          49.000                                                                  
> 2025  4 11  9 27 25.4990000  0 22                     
G05  21468479.528   112817619.443        1922.529          45.000    21468468.430    87909792.935        1498.176          40.000  
G06  21550042.494   113246233.335        -950.240          43.000    21550033.058    88243778.233        -740.719          40.000  
G07  25169562.939   132266937.540        1362.393          29.000                                                                  
G09  23294854.205   122415284.929       -2659.760          35.000    23294847.273    95388505.334       -2071.885          39.000  
G11  20634183.232   108433366.417         511.896          45.000    20634169.953    84493478.736         399.042          43.000  
G13  22608415.505   118808040.413        3981.606          44.000                                                                  
G17  24889807.489   130796899.226       -3262.338          25.000                                                                  
G19  22360407.528   117504715.606       -3353.028          37.000                                                                  
G20  20326068.599   106814209.516         147.873          42.000                                                                  
G25  24020736.079   126229809.522        -740.411          37.000    24020733.683    98360887.638        -576.572          36.000  
G29  24593226.700   129238290.109        3769.343          40.000    24593222.989   100705138.028        2936.884          27.000  
G30  24764136.110   130136528.125        2157.315          39.000    24764138.882   101405015.164        1680.753          36.000  
C07  35928136.697   187087227.843        -700.915          43.000    35928116.116   144667630.097        -542.542          42.000  
C08  36407303.144   189582384.306         -71.092          41.000    36407282.214   146597038.543         -54.741          41.000  
C10  35976371.100   187338396.464        -392.565          44.000    35976353.084   144861858.299        -304.321          42.000  
C13  37022503.967   192785896.010          62.906          45.000    37022492.610   149074230.656          48.695          44.000  
C19  24907801.077   129701454.555        3174.488          32.000                                                                  
C20  21690336.749   112947278.157        1270.143          50.000                                                                  
C27  24715339.550   128699234.153       -2423.386          43.000                                                                  
C29  22244307.432   115831947.391        2279.134          28.000                                                                  
C30  21423787.876   111559280.049        -554.350          49.000                                                                  
C32  22742282.872   118425025.310       -1859.458          49.000                                                                  
> 2025  4 11  9 27 25.9990000  0 21                     
G05  21468296.646   112816658.425        1921.693          41.000    21468285.511    87909044.088        1497.849          41.000  
G06  21550132.980   113246708.515        -949.845          42.000    21550123.535    88244148.482        -740.299          40.000  
G07  25169431.150   132266256.024        1362.177          30.000                                                                  
G09  23295107.203   122416614.781       -2659.604          39.000    23295100.312    95389541.601       -2072.364          41.000  
G11  20634134.531   108433110.570         511.407          43.000    20634121.300    84493279.362         398.840          41.000  
G13  22608036.656   118806049.807        3981.357          44.000                                                                  
G17  24890117.925           0.000       -3262.376          25.000                                                                  
G19  22360726.726   117506392.509       -3353.958          37.000                                                                  
G20  20326054.512   106814135.676         147.011          39.000                                                                  
G25  24020806.549   126230179.658        -740.723          41.000    24020804.096    98361175.920        -577.551          36.000  
G29  24592868.009   129236405.588        3769.383          42.000    24592864.978   100703669.471        2936.426          28.000  
G30  24763930.965   130135449.716        2157.499          42.000    24763933.673   101404174.923        1680.021          34.000  
C07  35928204.037   187087578.463        -701.874          44.000    35928183.501   144667901.254        -542.111          41.000  
C08  36407309.898   189582419.879         -71.044          38.000    36407289.071   146597066.130         -55.278          36.000  
C10  35976408.775   187338593.006        -393.019          45.000    35976390.866   144862010.256        -304.193          43.000  
C13  37022497.899   192785864.645          63.193          42.000    37022486.551   149074206.413          48.617          43.000  
C19  24907496.445   129699868.372        3172.588          32.000                                                                  
C20  21690214.707   112946643.237        1269.716          49.000                                                                  
C27  24715572.292   128700446.066       -2424.520          43.000                                                                  
C30  21423841.203   111559557.478        -554.922          49.000                                                                  
C32  22742461.411   118425955.172       -1859.798          48.000                                                                  
> 2025  4 11  9 27 26.4990000  0 22                     
G05  21468113.800   112815697.540        1921.823          38.000    21468102.759    87908295.382        1497.352          39.000  
G06  21550223.470   113247183.917        -951.626          43.000    21550213.980    88244518.937        -741.245          41.000  
G07  25169296.727   132265574.799        1361.671          31.000                                                                  
G09  23295360.453   122417945.020       -2661.544          39.000    23295353.435    95390578.099       -2073.411          42.000  
G11  20634085.939   108432854.929         511.096          43.000    20634072.661    84493080.206         397.815          38.000  
G13  22607657.887   118804059.410        3980.421          45.000                                                                  
G17  24890429.733           0.000       -3263.608          24.000                                                                  
G19  22361045.852   117508069.527       -3354.626          39.000                                                                  
G20  20326040.407   106814061.950         147.230          39.000                                                                  
G25  24020877.202   126230550.034        -741.632          38.000    24020874.628    98361464.602        -577.690          33.000  
G29  24592509.422   129234521.302        3768.568          41.000    24592510.574   100702201.203        2935.776          28.000  
G30  24763725.759   130134371.520        2156.003          39.000    24763728.554   101403334.825        1680.198          37.000  
C07  35928271.486   187087929.370        -702.654          40.000    35928250.994   144668172.511        -542.710          40.000  
C08  36407316.857   189582455.883         -71.922          32.000    36407296.054   146597093.856         -55.778          36.000  
C10  35976446.567   187338789.765        -393.839          41.000    35976428.547   144862162.367        -304.515          39.000  
C13  37022491.905   192785833.610          62.141          34.000    37022480.618   149074182.358          48.376          39.000  
C19  24907191.906   129698282.389        3171.598          33.000                                                                  
C20  21690092.726   112946008.607        1268.569          48.000                                                                  
C27  24715805.120   128701658.128       -2425.137          43.000                                                                  
C29  22243873.246           0.000        2274.805          39.000                                                                  
C30  21423894.468   111559835.099        -555.567          50.000                                                                  
C32  22742640.040   118426885.295       -1860.624          47.000                                                                  
> 2025  4 11  9 27 26.9990000  0 22                     
G05  21467930.918   112814737.000        1920.459          34.000    21467920.039    87907546.918        1496.804          35.000  
G06  21550314.002   113247659.555        -951.278          44.000    21550304.542    88244889.531        -741.305          43.000  
G07  25169161.957   132264893.803        1361.536          31.000                                                                  
G09  23295613.663   122419275.442       -2661.049          39.000    23295606.669    95391614.826       -2073.547          41.000  
G11  20634037.360   108432599.540         510.547          43.000    20634024.105    84492881.178         397.839          39.000  
G13  22607279.114   118802069.226        3979.998          45.000                                                                  
G17  24890741.016           0.000       -3264.204          22.000                                                                  
G19  22361365.036   117509746.973       -3355.090          35.000                                                                  
G20  20326026.485   106813988.434         146.819          41.000                                                                  
G25  24020947.802   126230920.698        -740.874          35.000    24020945.217    98361753.408        -577.440          32.000  
G29  24592150.815   129232637.180        3767.877          39.000    24592152.806   100700732.988        2936.979          29.000  
G30  24763520.517   130133293.605        2155.500          41.000    24763523.366   101402494.769        1680.284          37.000  
C07  35928338.848   187088280.361        -702.153          40.000    35928318.350   144668443.981        -543.275          40.000  
C08  36407323.772   189582491.792         -72.123          37.000    36407303.012   146597121.678         -55.128          36.000  
C10  35976484.443   187338986.760        -394.088          41.000    35976466.289   144862314.723        -304.747          38.000  
C13  37022486.014   192785802.659          62.047          34.000    37022474.620   149074158.447          47.765          37.000  
C19  24906887.449   129696696.672        3170.568          33.000                                                                  
C20  21689970.962   112945374.246        1268.559          48.000                                                                  
C27  24716037.967   128702870.423       -2425.042          44.000                                                                  
C29  22243653.338   115828539.576        2276.344          37.000                                                                  
C30  21423947.901   111560113.065        -556.076          49.000                                                                  
C32  22742818.793   118427815.645       -1860.867          48.000                                                                  
> 2025  4 11  9 27 27.4990000  0 22                     
G05  21467748.151   112813776.653        1918.075          34.000    21467737.280    87906798.465        1495.565          37.000  
G06  21550404.452   113248134.937        -952.264          46.000    21550394.972    88245259.931        -741.611          43.000  
G07  25169029.161   132264212.856        1361.530          31.000                                                                  
G09  23295866.868   122420605.913       -2663.488          43.000    23295859.852    95392651.650       -2075.042          39.000  
G11  20633988.665   108432343.841         511.029          43.000    20633975.445    84492681.897         397.260          43.000  
G13  22606900.372   118800078.895        3980.871          42.000                                                                  
G17  24891052.359           0.000       -3259.245          22.000                                                                  
G19  22361684.081   117511424.077       -3354.842          42.000                                                                  
G20  20326012.472   106813914.589         146.158          36.000                                                                  
G25  24021018.557   126231291.875        -745.126          32.000    24021015.911    98362042.578        -580.287          32.000  
G29  24591792.396   129230753.391        3765.281          35.000    24591794.090   100699265.177        2934.384          29.000  
G30  24763315.402   130132215.591        2155.186          41.000    24763318.319   101401654.797        1679.187          41.000  
C07  35928406.202   187088630.975        -701.865          40.000    35928385.682   144668715.144        -542.708          41.000  
C08  36407330.647   189582527.390         -71.890          37.000    36407309.742   146597149.204         -55.724          38.000  
C10  35976522.280   187339183.373        -393.584          41.000    35976504.164   144862466.765        -305.103          40.000  
C13  37022480.150   192785771.594          61.162          40.000    37022468.667   149074134.459          47.296          37.000  
C19  24906583.040   129695111.058        3169.234          38.000                                                                  
C20  21689849.072   112944739.543        1268.690          47.000                                                                  
C27  24716270.630   128704082.612       -2424.330          44.000                                                                  
C29  22243433.279   115827400.903        2275.918          34.000                                                                  
C30  21424001.022   111560390.638        -555.297          48.000                                                                  
C32  22742997.380   118428745.784       -1861.208          48.000                                                                  
> 2025  4 11  9 27 27.9990000  0 22                     
G05  21467565.162   112812815.031        1921.954          46.000    21467554.239    87906049.214        1497.857          39.000  
G06  21550494.791   113248609.384        -948.020          44.000    21550485.275    88245629.645        -738.905          41.000  
G07  25168896.497   132263532.291        1361.788          31.000                                                                  
G09  23296120.278   122421936.712       -2663.313          43.000    23296112.997    95393688.472       -2071.963          35.000  
G11  20633939.786   108432087.010         514.160          46.000    20633926.653    84492481.822         400.342          43.000  
G13  22606521.536   118798087.916        3980.597          44.000                                                                  
G17  24891362.731           0.000       -3263.183          24.000                                                                  
G19  22362003.121   117513100.731       -3353.044          43.000                                                                  
G20  20325998.212   106813839.532         151.177          42.000                                                                  
G25  24021089.354   126231676.487        -740.959          36.000    24021085.848    98362330.792        -580.699          33.000  
G29  24591434.086   129228870.615        3765.535          28.000    24591434.718   100697797.279        2936.236          29.000  
G30  24763110.226   130131137.459        2155.550          39.000    24763113.173   101400815.057        1679.668          39.000  
C07  35928473.150   187088980.360        -697.617          44.000    35928452.779   144668985.253        -539.382          43.000  
C08  36407337.393   189582561.771         -67.823          39.000    36407316.443   146597175.817         -53.341          42.000  
C10  35976559.652   187339378.614        -390.554          42.000    35976541.707   144862617.752        -301.106          41.000  
C13  37022473.892   192785739.217          65.641          40.000    37022462.383   149074109.487          50.216          39.000  
C19  24906278.226           0.000        3171.953          34.000                                                                  
C20  21689726.836   112944103.440        1273.250          49.000                                                                  
C27  24716503.319   128705294.543       -2421.601          40.000                                                                  
C29  22243214.500   115826261.390        2280.199          42.000                                                                  
C30  21424053.971   111560666.794        -551.332          48.000                                                                  
C32  22743175.676   118429675.132       -1857.756          48.000                                                                  
> 2025  4 11  9 27 28.4990000  0 22                     
G05  21467382.259   112811853.895        1920.417          44.000    21467371.321    87905300.338        1495.592          41.000  
G06  21550585.094   113249084.217        -952.933          46.000    21550575.563    88245999.634        -741.932          43.000  
G07  25168767.319           0.000        1360.040          22.000                                                                  
G09  23296373.449   122423267.052       -2662.304          41.000    23296366.164    95394725.161       -2072.704          35.000  
G11  20633890.946   108431830.349         509.656          46.000    20633877.769    84492281.799         398.059          42.000  
G13  22606142.826   118796097.717        3978.481          42.000                                                                  
G17  24891671.260   130806614.851       -3265.469          30.000                                                                  
G19  22362322.311   117514778.177       -3357.318          43.000                                                                  
G20  20325983.996   106813764.717         146.354          46.000                                                                  
G25  24021160.036   126232047.619        -743.199          40.000    24021154.556    98362620.015        -579.154          29.000  
G29  24591075.821   129226975.002        3766.854          28.000    24591076.079           0.000        2936.212          20.000  
G30  24762905.295   130130060.211        2154.978          34.000    24762908.096   101399975.132        1678.527          37.000  
C07  35928540.411   187089330.375        -703.650          43.000    35928520.039   144669255.899        -543.501          42.000  
C08  36407343.966   189582596.418         -71.895          43.000    36407323.084   146597202.578         -56.260          44.000  
C10  35976597.252   187339574.488        -395.311          43.000    35976579.347   144862769.165        -304.912          42.000  
C13  37022467.748   192785707.298          61.774          43.000    37022456.178   149074084.810          47.260          41.000  
C19  24905971.272   129691927.394        3168.559          39.000                                                                  
C20  21689604.696   112943468.075        1267.416          48.000                                                                  
C27  24716736.259   128706507.112       -2426.828          44.000                                                                  
C29  22242996.359   115825122.012        2275.965          46.000                                                                  
C30  21424107.008   111560943.637        -556.819          47.000                                                                  
C32  22743354.090   118430604.521       -1861.275          47.000                                                                  
> 2025  4 11  9 27 28.9990000  0 22                     
G05  21467199.691   112810894.176        1919.704          45.000    21467188.677    87904552.420        1496.004          41.000  
G06  21550675.729   113249560.550        -952.405          44.000    21550666.219    88246370.838        -742.217          44.000  
G07  25168645.375           0.000        1364.497          29.000    25168661.247   103061459.572        1058.617          30.000  
G09  23296626.709   122424597.859       -2660.813          38.000    23296619.414    95395762.202       -2074.229          37.000  
G11  20633842.353   108431575.226         510.645          45.000    20633829.181    84492083.029         397.937          44.000  
G13  22605764.465   118794109.244        3976.638          45.000                                                                  
G17  24891980.439   130808248.214       -3267.049          30.000                                                                  
G19  22362641.905   117516457.336       -3358.470          43.000                                                                  
G20  20325969.996   106813691.525         146.996          45.000                                                                  
G25  24021230.775   126232419.110        -742.356          38.000    24021226.180    98362909.326        -578.378          30.000  
G29  24590718.323   129225096.397        3769.848          27.000    24590716.492           0.000        2929.342          21.000  
G30  24762700.371   130128983.490        2152.759          37.000    24762703.226   101399136.320        1678.617          41.000  
C07  35928608.047   187089682.462        -704.034          44.000    35928587.560   144669528.220        -544.862          43.000  
C08  36407350.842   189582632.566         -72.244          41.000    36407330.117   146597230.512         -55.758          43.000  
C10  35976635.245   187339772.279        -395.742          43.000    35976617.305   144862922.180        -306.101          42.000  
C13  37022461.910   192785676.725          62.006          42.000    37022450.322   149074061.141          48.228          40.000  
C19  24905668.232   129690343.186        3168.224          43.000                                                                  
C20  21689483.075   112942834.881        1266.581          49.000                                                                  
C27  24716969.272   128707721.051       -2427.963          44.000                                                                  
C29  22242777.369   115823983.878        2276.524          46.000                                                                  
C30  21424160.560   111561222.642        -557.676          47.000                                                                  
C32  22743532.584   118431535.259       -1860.839          46.000                                                                  
> 2025  4 11  9 27 29.4990000  0 22                     
G05  21467017.222   112809935.241        1916.628          43.000    21467006.278    87903805.245        1493.613          40.000  
G06  21550766.262   113250036.463        -950.477          44.000    21550756.820    88246741.652        -739.949          42.000  
G07  25168515.996           0.000        1362.596          29.000    25168528.011   103060929.206        1061.702          29.000  
G09  23296879.927   122425928.295       -2659.098          41.000    23296872.611    95396798.894       -2071.533          38.000  
G11  20633793.834   108431320.181         510.852          45.000    20633780.662    84491884.268         398.199          43.000  
G13  22605386.201   118792120.959        3976.101          43.000                                                                  
G17  24892289.886   130809881.087       -3265.428          30.000                                                                  
G19  22362961.367   117518136.238       -3357.748          44.000                                                                  
G20  20325956.149   106813618.714         145.592          44.000                                                                  
G25  24021301.718   126232791.517        -745.583          33.000    24021298.543    98363199.556        -581.132          32.000  
G29  24590360.195   129223212.809        3767.079          33.000    24590355.499   100693394.074        2938.334          21.000  
G30  24762495.390   130127906.141        2154.955          36.000    24762498.210   101398296.884        1680.621          42.000  
C07  35928675.818   187090034.898        -705.244          43.000    35928655.130   144669800.722        -545.494          41.000  
C08  36407357.827   189582669.184         -73.339          41.000    36407337.140   146597258.834         -56.885          43.000  
C10  35976673.229   187339970.545        -397.008          42.000    35976655.455   144863075.486        -307.073          42.000  
C13  37022456.190   192785646.865          59.093          42.000    37022444.636   149074037.996          45.769          41.000  
C19  24905363.745   129688759.617        3166.184          40.000                                                                  
C20  21689361.418   112942202.112        1264.998          48.000                                                                  
C27  24717202.309   128708934.454       -2425.819          43.000                                                                  
C29  22242558.535   115822846.262        2275.614          46.000                                                                  
C30  21424213.983   111561501.615        -557.275          48.000                                                                  
C32  22743711.132   118432465.794       -1859.876          48.000                                                                  
> 2025  4 11  9 27 29.9990000  0 22                     
G05  21466834.980   112808977.396        1917.451          44.000    21466824.017    87903058.813        1493.772          40.000  
G06  21550856.673   113250511.810        -950.752          46.000    21550847.205    88247112.026        -740.815          43.000  
G07  25168384.783   132260753.788        1357.315          21.000    25168396.411           0.000        1065.138          28.000  
G09  23297133.030   122427258.042       -2660.037          43.000    23297125.636    95397834.996       -2072.056          40.000  
G11  20633745.284   108431064.954         510.797          45.000    20633732.089    84491685.374         397.845          44.000  
G13  22605007.905   118790133.354        3976.413          42.000                                                                  
G17  24892600.085   130811514.136       -3263.517          29.000                                                                  
G19  22363280.924   117519815.451       -3358.490          40.000                                                                  
G20  20325942.371   106813546.234         145.646          44.000                                                                  
G25  24021372.861   126233165.123        -746.049          33.000    24021369.270           0.000        -581.239          27.000  
G29  24590001.002   129221329.718        3767.175          33.000    24589994.223           0.000        2935.171          22.000  
G30  24762290.346   130126828.484        2155.458          34.000    24762293.038   101397457.112        1679.937          41.000  
C07  35928743.724   187090388.033        -704.821          43.000    35928722.925   144670073.794        -544.968          43.000  
C08  36407364.905   189582706.424         -73.326          41.000    36407344.208   146597287.589         -56.254          43.000  
C10  35976711.421   187340169.602        -396.636          41.000    35976693.682   144863229.372        -306.659          42.000  
C13  37022450.593   192785617.811          59.591          43.000    37022439.001   149074015.515          45.998          41.000  
C19  24905059.729   129687177.310        3166.100          41.000                                                                  
C20  21689239.859   112941570.052        1265.227          48.000                                                                  
C27  24717435.158   128710147.662       -2427.365          41.000                                                                  
C29  22242340.555   115821709.083        2274.905          45.000                                                                  
C30  21424267.446   111561780.716        -557.708          48.000                                                                  
C32  22743889.604   118433395.946       -1860.490          46.000                                                                  
> 2025  4 11  9 27 30.4990000  0 22                     
G05  21466652.713   112808019.451        1919.973          44.000    21466641.743    87902312.338        1496.222          40.000  
G06  21550947.205   113250988.017        -948.573          45.000    21550937.811    88247483.122        -739.100          44.000  
G07  25168253.636           0.000        1363.993          21.000                                                                  
G09  23297386.442   122428589.278       -2659.279          43.000    23297378.922    95398872.314       -2072.318          41.000  
G11  20633696.909   108430810.647         512.317          45.000    20633683.664    84491487.220         399.384          44.000  
G13  22604629.487   118788144.965        3982.378          43.000                                                                  
G17  24892910.199   130813146.936       -3261.741          29.000                                                                  
G19  22363600.352   117521494.242       -3352.122          43.000                                                                  
G20  20325928.675   106813474.360         147.488          45.000                                                                  
G25  24021443.979   126233538.773        -743.401          36.000    24021440.873    98363781.992        -578.630          33.000  
G29  24589641.844   129219447.543        3767.317          33.000    24589638.504           0.000        2935.649          29.000  
G30  24762085.100   130125750.710        2161.591          34.000    24762087.932   101396617.504        1683.654          41.000  
C07  35928811.483   187090740.814        -700.509          43.000    35928790.662   144670346.564        -541.954          42.000  
C08  36407372.188   189582743.922         -70.939          41.000    36407351.455   146597316.598         -54.900          43.000  
C10  35976749.589   187340368.438        -392.837          42.000    35976731.827   144863383.116        -303.948          42.000  
C13  37022444.885   192785588.751          62.428          43.000    37022433.509   149073993.021          48.229          41.000  
C19  24904753.153   129685594.102        3172.456          40.000                                                                  
C20  21689118.591   112940937.928        1268.864          49.000                                                                  
C27  24717668.110   128711360.803       -2421.941          43.000                                                                  
C29  22242122.389   115820572.557        2276.295          46.000                                                                  
C30  21424321.056   111562060.107        -554.369          47.000                                                                  
C32  22744068.331   118434327.222       -1858.795          46.000                                                                  
> 2025  4 11  9 27 30.9990000  0 22                     
G05  21466469.944   112807059.109        1920.119          44.000    21466458.966    87901564.028        1496.393          40.000  
G06  21551037.320   113251461.966        -947.791          45.000    21551028.008    88247852.418        -738.743          43.000  
G07  25168121.369           0.000        1363.031          22.000                                                                  
G09  23297639.438   122429918.813       -2658.796          39.000    23297631.958    95399908.377       -2071.696          42.000  
G11  20633648.100   108430554.139         512.769          45.000    20633634.818    84491287.340         399.597          44.000  
G13  22604250.555   118786153.709        3982.200          42.000                                                                  
G17  24893221.732   130814776.638       -3259.573          28.000                                                                  
G19  22363919.301   117523170.259       -3352.294          42.000                                                                  
G20  20325914.579   106813400.290         147.884          45.000                                                                  
G25  24021514.771   126233910.146        -743.448          40.000    24021511.880    98364071.757        -580.006          34.000  
G29  24589281.494   129217563.738        3768.716          33.000    24589278.905   100688986.262        2934.999          29.000  
G30  24761879.466   130124670.628        2159.964          38.000    24761882.365   101395775.900        1682.466          37.000  
C07  35928878.703   187091090.796        -700.432          43.000    35928857.877   144670617.172        -541.650          41.000  
C08  36407378.992   189582779.127         -70.732          42.000    36407358.151   146597343.814         -54.459          42.000  
C10  35976787.247   187340564.593        -392.773          42.000    35976769.560   144863534.812        -303.823          42.000  
C13  37022438.935   192785557.317          62.437          43.000    37022427.522   149073968.747          48.659          41.000  
C19  24904452.369   129684008.274        3171.318          40.000                                                                  
C20  21688996.593   112940303.226        1268.911          48.000                                                                  
C27  24717900.584   128712571.424       -2421.351          45.000                                                                  
C29  22241903.567   115819433.997        2277.038          46.000                                                                  
C30  21424374.114   111562336.953        -553.959          47.000                                                                  
C32  22744246.991   118435256.451       -1858.525          48.000                                                                  
> 2025  4 11  9 27 31.4990000  0 22                     
G05  21466287.367   112806099.358        1918.103          44.000    21466276.320    87900816.155        1495.032          40.000  
G06  21551127.475   113251935.950        -949.102          46.000    21551118.148    88248221.735        -739.131          44.000  
G07  25167991.540           0.000        1365.679          24.000    25168002.370           0.000        1063.077          24.000  
G09  23297892.460   122431248.006       -2659.000          39.000    23297884.886    95400944.151       -2073.057          36.000  
G11  20633599.326   108430297.789         512.158          45.000    20633586.034    84491087.567         398.962          43.000  
G13  22603871.802   118784162.968        3979.460          42.000                                                                  
G17  24893530.693   130816406.587       -3260.407          27.000                                                                  
G19  22364238.301   117524846.573       -3354.145          42.000                                                                  
G20  20325900.481   106813326.527         146.620          45.000                                                                  
G25  24021585.660   126234282.365        -746.274          38.000    24021582.931    98364361.728        -580.204          33.000  
G29  24588922.799   129215679.843        3767.499          36.000    24588920.732   100687518.179        2936.231          32.000  
G30  24761673.855   130123590.457        2159.301          40.000    24761676.777   101394934.202        1681.220          37.000  
C07  35928946.001   187091441.398        -702.869          43.000    35928925.322   144670888.312        -543.666          43.000  
C08  36407385.625   189582814.706         -72.190          41.000    36407364.937   146597371.354         -56.159          42.000  
C10  35976825.033   187340761.376        -395.092          42.000    35976807.362   144863686.969        -305.428          42.000  
C13  37022432.952   192785526.360          60.535          43.000    37022421.533   149073944.786          47.153          41.000  
C19  24904147.093   129682423.087        3168.268          40.000                                                                  
C20  21688874.745   112939669.201        1266.593          48.000                                                                  
C27  24718133.074   128713782.202       -2423.128          43.000                                                                  
C29  22241685.119   115818295.708        2275.500          47.000                                                                  
C30  21424427.332   111562614.250        -555.721          48.000                                                                  
C32  22744425.363   118436185.670       -1859.070          47.000                                                                  
> 2025  4 11  9 27 31.9990000  0 22                     
G05  21466104.931   112805140.362        1915.961          45.000    21466093.840    87900068.891        1493.252          40.000  
G06  21551217.844   113252410.667        -950.801          45.000    21551208.545    88248591.659        -741.406          45.000  
G07  25167861.963           0.000        1362.613          23.000    25167869.145           0.000        1056.797          25.000  
G09  23298145.645   122432577.962       -2662.099          41.000    23298137.964    95401980.509       -2073.948          37.000  
G11  20633550.721   108430042.305         509.515          45.000    20633537.449    84490888.506         397.174          43.000  
G13  22603493.064   118782172.576        3980.471          41.000                                                                  
G17  24893840.541   130818037.110       -3263.934          28.000                                                                  
G19  22364557.493   117526523.454       -3353.547          42.000                                                                  
G20  20325886.628   106813253.641         144.098          45.000                                                                  
G25  24021656.687   126234655.347        -748.489          38.000    24021653.675    98364652.433        -584.312          32.000  
G29  24588564.417   129213796.676        3764.548          38.000    24588562.238   100686050.904        2933.085          33.000  
G30  24761468.428   130122510.741        2158.188          41.000    24761471.334   101394092.894        1680.958          39.000  
C07  35929013.475   187091792.601        -704.009          44.000    35928992.896   144671159.889        -544.588          43.000  
C08  36407392.707   189582851.064         -74.710          42.000    36407371.963   146597399.448         -58.014          42.000  
C10  35976862.975   187340958.801        -396.580          42.000    35976845.312   144863839.653        -306.815          42.000  
C13  37022427.205   192785496.114          58.418          43.000    37022415.787   149073921.400          45.711          41.000  
C19  24903843.036   129680838.389        3168.433          42.000                                                                  
C20  21688752.996   112939035.914        1264.948          48.000                                                                  
C27  24718365.802   128714993.390       -2422.824          44.000                                                                  
C29  22241466.491   115817158.305        2272.562          46.000                                                                  
C30  21424480.714   111562892.306        -557.464          47.000                                                                  
C32  22744604.075   118437115.754       -1861.501          46.000                                                                  
> 2025  4 11  9 27 32.4990000  0 22                     
G05  21465922.379   112804180.793        1918.129          45.000    21465911.288    87899321.157        1494.831          40.000  
G06  21551308.038   113252884.692        -948.830          45.000    21551298.740    88248961.025        -739.115          44.000  
G07                                                                  25167739.096   103057684.059        1063.877          26.000  
G09  23298398.727   122433907.545       -2659.281          44.000    23298390.935    95403016.441       -2072.959          37.000  
G11  20633501.978   108429786.218         511.194          45.000    20633488.654    84490688.909         398.804          43.000  
G13  22603114.154   118780181.531        3981.227          41.000                                                                  
G17  24894150.424           0.000       -3260.032          28.000                                                                  
G19  22364876.430   117528199.569       -3353.225          42.000                                                                  
G20  20325872.630   106813180.153         146.250          44.000                                                                  
G25  24021727.565   126235027.856        -744.916          39.000    24021724.107    98364942.604        -580.530          32.000  
G29  24588206.084   129211913.248        3766.400          40.000    24588203.231   100684583.293        2933.786          33.000  
G30  24761262.790   130121430.260        2160.281          43.000    24761265.658   101393250.776        1686.945          34.000  
C07  35929080.811   187092143.037        -701.831          43.000    35929060.158   144671430.843        -542.880          42.000  
C08  36407399.514   189582886.749         -72.556          42.000    36407378.713   146597427.022         -55.734          42.000  
C10  35976900.734   187341155.509        -394.097          42.000    35976883.090   144863991.736        -305.011          42.000  
C13  37022421.238   192785465.183          60.923          43.000    37022409.867   149073897.512          46.963          41.000  
C19  24903537.955   129679253.045        3169.681          42.000                                                                  
C20  21688631.178   112938401.955        1267.050          49.000                                                                  
C27  24718598.160   128716203.841       -2421.403          42.000                                                                  
C29  22241247.755   115816020.304        2274.925          46.000                                                                  
C30  21424533.856   111563169.666        -555.581          47.000                                                                  
C32  22744782.450   118438045.290       -1859.548          46.000                                                                  
> 2025  4 11  9 27 32.9990000  0 22                     
G05  21465739.730   112803221.334        1919.417          43.000    21465728.726    87898573.551        1495.889          40.000  
G06  21551398.147   113253358.595        -947.306          45.000    21551388.929    88249330.299        -738.236          44.000  
G07                                                                  25167608.277           0.000        1065.184          26.000  
G09  23298651.757   122435237.081       -2660.199          43.000    23298643.934    95404052.393       -2072.842          37.000  
G11  20633453.250   108429530.092         512.305          45.000    20633439.977    84490489.375         399.060          44.000  
G13  22602735.192   118778190.350        3984.237          42.000                                                                  
G17  24894459.571           0.000       -3263.265          28.000                                                                  
G19  22365195.444   117529875.591       -3351.042          44.000                                                                  
G20  20325858.643   106813106.723         147.284          45.000                                                                  
G25  24021798.533   126235400.666        -746.284          40.000    24021795.128    98365233.100        -581.260          32.000  
G29  24587847.477   129210029.862        3766.278          40.000    24587843.671   100683115.696        2934.266          33.000  
G30  24761057.095   130120349.501        2161.450          43.000    24761060.045   101392408.772        1683.275          34.000  
C07  35929148.173   187092493.496        -699.437          43.000    35929127.407   144671701.856        -541.291          43.000  
C08  36407406.313   189582922.443         -70.828          42.000    36407385.556   146597454.655         -55.100          43.000  
C10  35976938.668   187341352.266        -392.196          42.000    35976920.909   144864143.893        -303.464          43.000  
C13  37022415.322   192785434.330          62.277          43.000    37022403.974   149073873.679          48.330          41.000  
C19  24903233.818   129677667.757        3171.529          41.000                                                                  
C20  21688509.506   112937768.134        1268.927          48.000                                                                  
C27  24718830.606   128717414.155       -2420.391          42.000                                                                  
C29  22241029.296   115814882.400        2276.366          47.000                                                                  
C30  21424587.121   111563447.037        -553.924          47.000                                                                  
C32  22744960.928   118438974.820       -1859.662          48.000                                                                  
> 2025  4 11  9 27 33.4990000  0 22                     
G05  21465557.235   112802262.203        1918.134          44.000    21465546.237    87897826.204        1494.682          39.000  
G06  21551488.473   113253833.166        -949.784          45.000    21551479.289    88249700.060        -739.657          44.000  
G07                                                                  25167476.307   103056607.812        1063.520          27.000  
G09  23298904.951   122436567.424       -2661.542          43.000    23298897.128    95405089.048       -2073.598          38.000  
G11  20633404.627   108429274.711         510.266          45.000    20633391.404    84490290.389         397.626          44.000  
G13  22602356.225   118776199.003        3982.802          42.000                                                                  
G17  24894774.454           0.000       -3263.250          26.000                                                                  
G19  22365514.367   117531551.544       -3352.329          43.000                                                                  
G20  20325844.779   106813033.939         145.395          45.000                                                                  
G25  24021869.597   126235773.788        -747.222          36.000    24021866.138    98365523.663        -578.761          31.000  
G29  24587488.665   129208147.190        3764.083          38.000    24587484.539   100681648.532        2933.974          32.000  
G30  24760851.463   130119268.755        2161.653          40.000    24760854.365           0.000        1687.152          32.000  
C07  35929215.479   187092844.073        -700.879          43.000    35929194.744   144671972.933        -541.888          42.000  
C08  36407413.318   189582958.625         -72.463          42.000    36407392.536   146597482.633         -56.102          43.000  
C10  35976976.438   187341549.244        -393.973          42.000    35976958.691   144864296.212        -304.661          42.000  
C13  37022409.506   192785403.835          61.210          43.000    37022398.086   149073850.093          46.516          41.000  
C19  24902929.636   129676082.321        3170.387          41.000                                                                  
C20  21688387.820   112937134.664        1267.027          48.000                                                                  
C27  24719063.041   128718624.551       -2421.405          43.000                                                                  
C29  22240810.730   115813744.743        2274.054          48.000                                                                  
C30  21424640.371   111563724.876        -555.999          47.000                                                                  
C32  22745139.494   118439905.050       -1860.927          48.000                                                                  
> 2025  4 11  9 27 33.9990000  0 22                     
G05  21465374.834   112801303.976        1914.149          45.000    21465363.918    87897079.520        1491.408          39.000  
G06  21551578.843   113254308.459        -951.410          44.000    21551569.761    88250070.454        -741.749          44.000  
G07  25167352.196           0.000        1364.600          32.000    25167344.549           0.000        1061.386          27.000  
G09  23299158.248   122437898.511       -2662.038          43.000    23299150.414    95406126.268       -2074.193          39.000  
G11  20633356.207   108429020.003         507.520          45.000    20633342.876    84490091.882         396.313          43.000  
G13  22601977.520   118774208.716        3978.502          43.000                                                                  
G17  24895094.734           0.000       -3260.768          25.000                                                                  
G19  22365833.507   117533228.556       -3355.399          42.000                                                                  
G20  20325831.131   106812961.886         142.183          45.000                                                                  
G25  24021940.789   126236147.881        -750.543          35.000    24021937.619           0.000        -586.651          30.000  
G29  24587131.593   129206265.185        3763.729          40.000    24587125.115   100680182.168        2932.519          33.000  
G30  24760646.029   130118189.069        2158.971          43.000    24760649.063   101390718.258        1680.455          32.000  
C07  35929282.963   187093195.542        -705.364          43.000    35929262.186   144672244.721        -545.554          43.000  
C08  36407420.417   189582995.515         -75.837          42.000    36407399.554   146597511.171         -58.839          43.000  
C10  35977014.382   187341747.032        -398.022          42.000    35976996.665   144864449.142        -307.650          42.000  
C13  37022403.894   192785374.113          57.560          43.000    37022392.402   149073827.105          44.108          41.000  
C19  24902624.481   129674497.891        3166.702          41.000                                                                  
C20  21688266.287   112936502.085        1262.694          48.000                                                                  
C27  24719295.620   128719835.936       -2423.596          44.000                                                                  
C29  22240592.399   115812608.230        2271.353          47.000                                                                  
C30  21424693.848   111564003.547        -559.144          47.000                                                                  
C32  22745318.179   118440836.034       -1862.988          47.000                                                                  
> 2025  4 11  9 27 34.4990000  0 22                     
G05  21465192.702   112800346.770        1909.403          45.000    21465181.838    87896333.663        1487.749          41.000  
G06  21551669.365   113254784.455        -957.365          45.000    21551660.365    88250441.389        -746.230          43.000  
G07  25167220.551           0.000        1358.575          32.000    25167214.523           0.000        1056.296          27.000  
G09  23299411.832   122439230.410       -2669.314          43.000    23299403.874    95407164.123       -2079.872          38.000  
G11  20633307.925   108428766.131         502.271          45.000    20633294.555    84489894.092         391.162          43.000  
G13  22601598.985   118772219.179        3975.154          43.000                                                                  
G17  24895405.909           0.000       -3262.490          23.000                                                                  
G19  22366152.778   117534906.243       -3359.309          43.000                                                                  
G20  20325817.590   106812890.742         137.044          45.000                                                                  
G25  24022012.225   126236523.013        -755.393          33.000    24022009.049           0.000        -589.687          29.000  
G29  24586773.977   129204384.158        3757.249          40.000    24586767.389   100678716.364        2928.884          33.000  
G30  24760440.723   130117109.920        2153.771          42.000    24760442.462   101389877.328        1679.002          32.000  
C07  35929350.523   187093547.851        -709.530          43.000    35929329.927   144672517.154        -548.910          42.000  
C08  36407427.779   189583033.299         -80.762          42.000    36407406.958   146597540.389         -62.223          43.000  
C10  35977052.458   187341945.712        -401.904          42.000    35977034.904   144864602.802        -311.364          41.000  
C13  37022398.295   192785345.312          52.915          43.000    37022386.801   149073804.850          40.641          41.000  
C19  24902320.893   129672914.446        3162.899          42.000                                                                  
C20  21688144.872   112935870.453        1258.221          48.000                                                                  
C27  24719528.313   128721047.937       -2428.271          44.000                                                                  
C29  22240374.297   115811472.698        2265.643          46.000                                                                  
C30  21424747.541   111564283.042        -564.331          47.000                                                                  
C32  22745496.954   118441767.805       -1868.978          47.000                                                                  
> 2025  4 11  9 27 34.9990000  0 22                     
G05  21465010.869   112799391.250        1913.819          44.000    21465000.025    87895589.144        1491.044          40.000  
G06  21551760.406   113255262.909        -953.960          45.000    21551751.397    88250814.182        -743.327          44.000  
G07  25167089.308   132253957.371        1358.413          34.000    25167084.440           0.000        1060.665          28.000  
G09  23299665.803   122440564.996       -2666.515          40.000    23299657.786    95408204.007       -2077.668          37.000  
G11  20633260.099   108428514.735         506.311          45.000    20633246.692    84489698.212         394.464          43.000  
G13  22601220.670   118770230.952        3978.433          44.000                                                                  
G17  24895715.703           0.000       -3264.969          22.000                                                                  
G19  22366472.345   117536585.583       -3356.596          42.000                                                                  
G20  20325804.500   106812821.863         141.110          45.000                                                                  
G25  24022083.906   126236899.909        -752.390          33.000    24022080.622           0.000        -584.231          28.000  
G29  24586416.904   129202505.236        3760.528          40.000    24586409.408   100677252.415        2930.327          33.000  
G30  24760235.748   130116032.556        2157.143          41.000    24760237.313   101389037.996        1679.225          35.000  
C07  35929418.466   187093901.776        -705.389          43.000    35929397.788   144672790.822        -545.339          42.000  
C08  36407435.461   189583073.063         -76.500          41.000    36407414.591   146597571.155         -59.168          43.000  
C10  35977091.006   187342146.150        -398.147          42.000    35977073.325   144864757.786        -307.710          41.000  
C13  37022393.027   192785318.269          57.104          43.000    37022381.660   149073783.912          44.028          41.000  
C19  24902016.767   129671332.130        3167.173          42.000                                                                  
C20  21688023.950   112935240.714        1262.309          48.000                                                                  
C27  24719761.292   128722261.775       -2424.827          43.000                                                                  
C29  22240156.536   115810339.388        2269.624          46.000                                                                  
C30  21424801.634   111564564.716        -560.428          48.000                                                                  
C32  22745676.427   118442702.158       -1865.642          48.000                                                                  
> 2025  4 11  9 27 35.4990000  0 22                     
G05  21464828.776   112798434.225        1912.381          44.000    21464817.895    87894843.357        1490.337          40.000  
G06  21551851.121   113255739.572        -955.168          45.000    21551842.073    88251185.604        -744.087          44.000  
G07  25166957.399   132253276.864        1358.083          31.000    25166954.017           0.000        1059.153          27.000  
G09  23299919.484   122441897.748       -2667.353          41.000    23299911.352    95409242.611       -2078.663          35.000  
G11  20633211.904   108428261.560         504.669          45.000    20633198.541    84489500.938         393.182          43.000  
G13  22600842.006   118768241.258        3978.126          44.000                                                                  
G17  24896028.051           0.000       -3266.152          20.000                                                                  
G19  22366791.595   117538263.418       -3357.102          42.000                                                                  
G20  20325791.009   106812751.274         139.356          45.000                                                                  
G25  24022155.366   126237275.248        -752.277          33.000    24022152.811           0.000        -590.315          26.000  
G29  24586059.356   129200624.606        3760.343          39.000    24586051.625   100675786.954        2929.688          33.000  
G30  24760030.430   130114953.585        2157.028          43.000    24760032.580   101388197.202        1683.062          32.000  
C07  35929486.098   187094254.127        -706.207          43.000    35929465.436   144673063.272        -545.860          42.000  
C08  36407442.724   189583111.132         -77.909          40.000    36407421.929   146597600.578         -60.341          43.000  
C10  35977129.154   187342344.946        -398.908          42.000    35977111.603   144864911.507        -308.497          41.000  
C13  37022387.469   192785289.600          55.880          43.000    37022376.096   149073761.745          43.524          41.000  
C19  24901712.785   129669748.472        3165.873          42.000                                                                  
C20  21687902.609   112934609.416        1260.848          48.000                                                                  
C27  24719994.090   128723474.042       -2426.005          43.000                                                                  
C29  22239938.533   115809204.353        2268.482          46.000                                                                  
C30  21424855.390   111564844.773        -561.954          47.000                                                                  
C32  22745855.534   118443634.695       -1866.809          47.000                                                                  
> 2025  4 11  9 27 35.9990000  0 22                     
G05  21464646.665   112797477.022        1910.167          44.000    21464635.761    87894097.537        1488.148          40.000  
G06  21551941.956   113256217.072        -960.533          44.000    21551932.964    88251557.740        -748.523          44.000  
G07  25166827.477           0.000        1357.948          30.000                                                                  
G09  23300173.332   122443231.624       -2672.314          40.000    23300165.238    95410282.024       -2083.125          35.000  
G11  20633163.801   108428008.969         500.122          44.000    20633150.406    84489304.131         389.575          43.000  
G13  22600463.342   118766251.370        3975.627          45.000                                                                  
G17  24896337.940           0.000       -3262.368          19.000                                                                  
G19  22367110.886   117539941.431       -3360.844          43.000                                                                  
G20  20325777.524   106812680.982         135.971          44.000                                                                  
G25  24022226.746   126237650.505        -752.704          35.000    24022224.066           0.000        -580.823          26.000  
G29  24585701.673   129198744.395        3757.128          37.000    24585693.466   100674321.880        2928.421          33.000  
G30  24759825.228   130113875.235        2151.481          44.000    24759826.631   101387356.855        1678.915          31.000  
C07  35929553.665   187094606.383        -709.155          43.000    35929533.140   144673335.688        -548.476          43.000  
C08  36407450.140   189583149.230         -80.774          41.000    36407429.229   146597630.045         -62.350          43.000  
C10  35977167.245   187342543.658        -401.998          42.000    35977149.784   144865065.191        -311.250          41.000  
C13  37022382.042   192785260.749          53.708          42.000    37022370.619   149073739.478          41.437          41.000  
C19  24901408.441   129668164.336        3164.638          42.000                                                                  
C20  21687781.406   112933978.208        1257.439          48.000                                                                  
C27  24720227.092   128724686.763       -2430.652          44.000                                                                  
C29  22239720.518   115808069.612        2265.402          45.000                                                                  
C30  21424909.336   111565125.229        -566.302          47.000                                                                  
C32  22746034.874   118444568.100       -1871.863          47.000                                                                  
> 2025  4 11  9 27 36.4990000  0 22                     
G05  21464464.497   112796519.623        1914.125          44.000    21464453.621    87893351.553        1490.904          40.000  
G06  21552032.802   113256694.797        -956.148          45.000    21552023.902    88251929.985        -745.196          44.000  
G07  25166704.812           0.000        1348.362          22.000                                                                  
G09  23300427.239   122444565.712       -2668.606          39.000    23300419.137    95411321.614       -2080.166          38.000  
G11  20633115.847   108427756.542         504.346          44.000    20633102.341    84489107.466         392.743          43.000  
G13  22600084.762   118764261.344        3979.179          43.000                                                                  
G17  24896648.977           0.000       -3263.243          19.000                                                                  
G19  22367430.315   117541619.467       -3357.296          45.000                                                                  
G20  20325764.186   106812610.696         140.346          44.000                                                                  
G25  24022298.119   126238025.523        -751.069          37.000    24022295.926    98367285.453        -585.212          27.000  
G29  24585343.880   129196863.891        3759.058          37.000    24585335.593   100672856.578        2927.601          32.000  
G30  24759620.031   130112796.906        2155.685          42.000    24759622.046   101386516.701        1678.718          32.000  
C07  35929621.363   187094958.557        -704.981          44.000    35929600.791   144673608.010        -545.087          43.000  
C08  36407457.361   189583187.199         -76.459          41.000    36407436.432   146597659.434         -59.308          42.000  
C10  35977205.348   187342742.289        -397.599          42.000    35977187.873   144865218.802        -308.202          41.000  
C13  37022376.306   192785231.722          57.571          42.000    37022365.109   149073717.078          44.188          41.000  
C19  24901104.020   129666579.978        3167.763          43.000                                                                  
C20  21687660.115   112933347.019        1261.935          48.000                                                                  
C27  24720459.847   128725899.651       -2426.307          41.000                                                                  
C29  22239502.462   115806934.855        2268.610          46.000                                                                  
C30  21424963.197   111565405.904        -561.756          47.000                                                                  
C32  22746214.022   118445501.672       -1867.496          47.000                                                                  
> 2025  4 11  9 27 36.9990000  0 23                     
G05  21464281.742   112795559.597        1915.953          44.000    21464270.958    87892603.454        1493.188          40.000  
G06  21552123.175   113257169.482        -951.341          45.000    21552114.188    88252299.874        -741.568          43.000  
G07  25166578.344   132251261.061        1361.733          30.000                                                                  
G09  23300680.647   122445896.871       -2664.649          39.000    23300672.434    95412358.808       -2076.627          38.000  
G11  20633067.202   108427501.106         508.459          44.000    20633053.750    84488908.423         395.831          43.000  
G12  23502014.203           0.000       -1874.000          29.000                                                                  
G13  22599705.543   118762268.684        3981.635          44.000                                                                  
G17  24896960.456           0.000       -3266.578          18.000                                                                  
G19  22367749.113   117543294.737       -3353.521          44.000                                                                  
G20  20325750.257   106812537.563         143.117          44.000                                                                  
G25  24022369.007   126238398.031        -749.071          35.000    24022367.784           0.000        -583.463          28.000  
G29  24584985.457   129194980.584        3764.054          37.000    24584975.159   100671363.046        2931.963          32.000  
G30  24759414.260   130111715.682        2159.742          42.000    24759417.337           0.000        1674.155          27.000  
C07  35929688.442   187095307.993        -701.974          44.000    35929667.903   144673878.205        -542.838          42.000  
C08  36407464.134   189583222.335         -73.418          41.000    36407443.146   146597686.597         -57.082          42.000  
C10  35977243.046   187342938.149        -394.918          42.000    35977225.538   144865370.222        -305.323          41.000  
C13  37022370.126   192785199.983          59.749          43.000    37022359.034   149073692.531          46.227          41.000  
C19  24900799.226   129664993.077        3169.578          45.000                                                                  
C20  21687538.454   112932713.157        1264.513          48.000                                                                  
C27  24720692.221   128727109.739       -2422.570          43.000                                                                  
C29  22239283.965   115805797.234        2272.089          46.000                                                                  
C30  21425016.493   111565683.742        -558.514          47.000                                                                  
C32  22746392.813   118446432.267       -1863.619          47.000                                                                  
> 2025  4 11  9 27 37.4990000  0 23                     
G05  21464099.288           0.000        1926.194          44.000    21464088.494    87891856.512        1501.620          40.000  
G06  21552213.501           0.000        -939.864          45.000    21552204.501    88252669.944        -732.298          43.000  
G07  25166447.450           0.000        1365.784          30.000                                                                  
G09  23300933.949           0.000       -2652.790          36.000    23300925.793           0.000       -2067.225          38.000  
G11  20633018.724           0.000         518.231          44.000    20633005.217    84488709.890         404.443          43.000  
G12  23502193.636           0.000       -1872.510          29.000                                                                  
G13  22599326.427           0.000        3993.134          45.000                                                                  
G17  24897272.925           0.000       -3256.706          18.000                                                                  
G19  22368067.978           0.000       -3341.549          42.000                                                                  
G20  20325736.400           0.000         152.577          44.000                                                                  
G25  24022440.208           0.000        -738.921          35.000    24022438.215           0.000        -577.670          29.000  
G29  24584627.300           0.000        3773.461          37.000    24584617.202           0.000        2940.051          32.000  
G30  24759208.467           0.000        2172.796          42.000    24759208.665   101384819.649        1694.836          33.000  
C07  35929755.667           0.000        -692.061          42.000    35929735.141   144674149.159        -534.810          43.000  
C08  36407471.101           0.000         -63.248          41.000    36407450.036   146597714.687         -48.884          42.000  
C10  35977280.913           0.000        -385.365          42.000    35977263.361   144865522.538        -297.449          41.000  
C13  37022364.349           0.000          69.902          44.000    37022353.076   149073668.974          54.356          40.000  
C19  24900494.608           0.000        3179.627          44.000                                                                  
C20  21687417.011           0.000        1274.466          48.000                                                                  
C27  24720924.490           0.000       -2410.839          42.000                                                                  
C29  22239065.619           0.000        2281.940          45.000                                                                  
C30  21425069.933           0.000        -547.776          48.000                                                                  
C32  22746571.584           0.000       -1852.924          47.000                                                                  
> 2025  4 11  9 27 37.9990000  0 21                     
G05  21463916.642   112793641.301        1916.398          44.000    21463905.892    87891108.668        1493.671          40.000  
G06  21552303.433   113258117.211        -948.013          46.000    21552294.507    88253038.330        -738.460          43.000  
G09  23301186.861   122448557.447       -2660.052          36.000    23301178.719    95414432.062       -2073.124          38.000  
G11  20632969.887   108426989.712         510.651          45.000    20632956.383    84488509.890         398.181          43.000  
G12  23502366.419           0.000       -1875.329          30.000    23502376.285           0.000       -1460.270          25.000  
G13  22598947.101   118758283.613        3982.178          45.000                                                                  
G19  22368386.585   117546644.640       -3352.386          43.000                                                                  
G20  20325722.340   106812391.717         144.986          44.000                                                                  
G25  24022511.248   126239145.336        -749.095          32.000    24022508.593    98368159.185        -584.654          28.000  
G29  24584268.995           0.000        3763.563          37.000    24584257.563   100668429.017        2932.453          32.000  
G30  24759002.352   130109551.283        2162.981          43.000    24759001.438   101383975.567        1685.382          33.000  
C07  35929822.657   187096007.395        -701.178          44.000    35929802.106   144674419.022        -542.070          42.000  
C08  36407477.722   189583293.500         -72.321          41.000    36407456.600   146597741.607         -56.035          42.000  
C10  35977318.539   187343330.726        -394.105          42.000    35977301.004   144865673.776        -304.730          41.000  
C13  37022358.245   192785137.800          60.597          43.000    37022347.055   149073644.399          46.880          41.000  
C19  24900189.940   129661820.940        3168.843          44.000                                                                  
C20  21687295.247   112931446.139        1265.530          48.000                                                                  
C27  24721156.576   128729528.302       -2420.451          43.000                                                                  
C29  22238847.089   115803522.834        2273.752          45.000                                                                  
C30  21425123.165   111566238.772        -555.916          48.000                                                                  
C32  22746750.064   118448292.410       -1860.326          47.000                                                                  
> 2025  4 11  9 27 38.4990000  0 22                     
G05  21463734.182   112792682.590        1922.141          43.000    21463723.387    87890361.607        1497.882          39.000  
G06  21552393.498   113258590.748        -942.601          46.000    21552384.576    88253407.313        -734.483          42.000  
G07  25166179.292           0.000        1366.647          24.000    25166179.119           0.000        1062.837          23.000  
G09  23301439.941   122449887.147       -2655.307          40.000    23301431.740    95415468.116       -2069.280          40.000  
G11  20632921.122   108426733.695         515.796          44.000    20632907.704    84488310.377         402.484          43.000  
G12  23502540.544   123506683.841       -1872.754          30.000    23502550.842           0.000       -1459.834          26.000  
G13  22598568.067   118756291.808        3988.464          45.000                                                                  
G19  22368705.456   117548320.086       -3345.530          44.000                                                                  
G20  20325708.362   106812318.679         150.623          44.000                                                                  
G25  24022582.365   126239519.247        -743.494          32.000    24022580.613           0.000        -589.036          28.000  
G29  24583910.594   129189332.107        3769.737          37.000    24583899.823   100666961.604        2938.235          35.000  
G30  24758796.335   130108469.015        2169.141          43.000    24758796.474   101383132.222        1689.855          29.000  
C07  35929889.902   187096357.557        -695.387          44.000    35929869.291   144674689.794        -537.521          43.000  
C08  36407484.669   189583329.048         -66.338          41.000    36407463.415   146597769.090         -51.255          43.000  
C10  35977356.363   187343527.433        -388.684          42.000    35977338.777   144865825.897        -300.820          42.000  
C13  37022352.356   192785106.905          66.196          42.000    37022341.178   149073620.491          51.242          41.000  
C19  24899885.389   129660235.663        3174.521          43.000                                                                  
C20  21687173.642   112930813.101        1270.955          49.000                                                                  
C27  24721388.740   128730737.703       -2414.181          41.000                                                                  
C29  22238628.642   115802385.485        2278.990          46.000                                                                  
C30  21425176.441   111566516.471        -550.694          48.000                                                                  
C32  22746928.548   118449222.042       -1855.075          47.000                                                                  
> 2025  4 11  9 27 38.9990000  0 23                     
G05  21463551.647   112791723.339        1916.216          43.000    21463540.871    87889614.135        1492.725          39.000  
G06  21552483.568   113259064.114        -948.714          46.000    21552474.696    88253776.165        -738.872          43.000  
G07  25166047.171           0.000        1366.542          24.000    25166044.647   103050745.155        1065.973          25.000  
G09  23301692.969   122451216.632       -2661.049          40.000    23301684.701    95416504.053       -2073.387          38.000  
G11  20632872.382   108426477.415         510.614          45.000    20632858.962    84488110.684         398.108          44.000  
G12  23502716.647   123507621.146       -1875.641          31.000    23502727.547           0.000       -1457.321          26.000  
G13  22598188.856   118754299.424        3982.433          45.000                                                                  
G17  24898198.439           0.000       -3256.799          30.000                                                                  
G19  22369024.181   117549995.120       -3352.051          44.000                                                                  
G20  20325694.379   106812245.288         144.967          45.000                                                                  
G25  24022653.427   126239892.586        -747.830          32.000    24022652.269           0.000        -581.319          26.000  
G29  24583552.109   129187448.570        3765.684          34.000    24583543.218   100665493.903        2933.881          34.000  
G30  24758590.274   130107386.411        2163.386          43.000    24758591.196   101382288.759        1685.028          33.000  
C07  35929957.111   187096707.243        -701.310          44.000    35929936.526   144674960.167        -542.381          43.000  
C08  36407491.399   189583364.175         -72.361          41.000    36407470.131   146597796.234         -55.864          43.000  
C10  35977393.978   187343723.660        -394.674          42.000    35977376.429   144865977.604        -305.330          42.000  
C13  37022346.375   192785075.446          60.468          42.000    37022335.210   149073596.139          47.043          40.000  
C19  24899580.699   129658649.695        3170.254          42.000                                                                  
C20  21687051.997   112930179.715        1264.257          49.000                                                                  
C27  24721620.912   128731946.893       -2420.483          41.000                                                                  
C29  22238410.186   115801247.739        2273.550          45.000                                                                  
C30  21425229.865   111566793.941        -556.991          48.000                                                                  
C32  22747106.959   118450151.475       -1860.806          47.000                                                                  
> 2025  4 11  9 27 39.4990000  0 23                     
G05  21463368.483   112790761.088        1925.551          44.000    21463357.784    87888864.319        1499.836          39.000  
G06  21552572.950   113259534.192        -939.725          45.000    21552564.123    88254142.446        -731.854          45.000  
G07  25165910.857   132247753.381        1375.001          31.000    25165913.168   103050209.769        1072.721          31.000  
G09  23301945.318   122452542.583       -2650.744          38.000    23301936.988    95417537.228       -2064.658          40.000  
G11  20632822.956   108426217.735         519.965          44.000    20632809.555    84487908.332         405.133          43.000  
G12  23502893.649   123508556.115       -1869.824          31.000    23502903.405    96240459.833       -1456.354          27.000  
G13  22597809.182   118752304.628        3989.690          42.000                                                                  
G17  24898504.329   130842523.224       -3249.499          30.000                                                                  
G19  22369342.451   117551667.652       -3344.996          43.000                                                                  
G20  20325679.869   106812168.574         154.053          45.000                                                                  
G25  24022724.003   126240263.009        -739.197          35.000    24022723.024    98369034.114        -577.443          26.000  
G29  24583193.045   129185561.500        3776.688          40.000    24583184.486   100664023.341        2942.804          34.000  
G30  24758383.713   130106301.028        2171.757          44.000    24758386.397   101381443.014        1692.474          34.000  
C07  35930023.685   187097054.164        -693.946          43.000    35930003.097   144675228.436        -536.779          43.000  
C08  36407497.556   189583396.021         -63.022          41.000    36407476.135   146597820.855         -48.481          43.000  
C10  35977430.991   187343916.980        -387.092          42.000    35977413.534   144866127.072        -298.948          42.000  
C13  37022339.682   192785040.890          69.518          42.000    37022328.480   149073569.369          54.260          40.000  
C19  24899275.678   129657061.348        3177.802          43.000                                                                  
C20  21686929.901   112929543.431        1272.596          49.000                                                                  
C27  24721852.565   128733153.407       -2412.877          42.000                                                                  
C29  22238191.066   115800106.635        2283.174          46.000                                                                  
C30  21425282.556   111567068.414        -549.107          48.000                                                                  
C32  22747284.754   118451077.455       -1851.087          47.000                                                                  
> 2025  4 11  9 27 39.9990000  0 23                     
G05  21463185.057   112789797.353        1928.033          45.000    21463174.394    87888113.321        1502.189          39.000  
G06  21552662.336   113260003.945        -940.497          46.000    21552653.609    88254508.475        -733.132          45.000  
G07  25165778.169   132247066.222        1374.319          31.000    25165779.508           0.000        1071.167          30.000  
G09  23302197.535   122453867.900       -2651.747          38.000    23302189.269    95418569.960       -2066.539          40.000  
G11  20632773.357   108425956.983         520.734          44.000    20632759.922    84487705.095         405.786          43.000  
G12  23503070.550   123509489.463       -1866.144          34.000    23503079.974    96241187.191       -1453.375          27.000  
G13  22597429.504   118750309.387        3990.263          40.000                                                                  
G17  24898808.754   130844148.426       -3250.338          30.000                                                                  
G19  22369660.714   117553340.156       -3345.903          43.000                                                                  
G20  20325664.956   106812090.447         156.308          45.000                                                                  
G25  24022794.283   126240631.651        -735.317          33.000    24022791.749           0.000        -574.806          26.000  
G29  24582833.617   129183672.625        3778.731          38.000    24582824.785   100662551.511        2944.069          34.000  
G30  24758177.162   130105215.880        2168.898          43.000    24758181.619   101380597.336        1690.143          30.000  
C07  35930090.119   187097400.137        -692.176          43.000    35930069.510   144675495.960        -535.321          43.000  
C08  36407503.420   189583426.296         -60.062          41.000    36407481.968   146597844.244         -46.810          43.000  
C10  35977467.819   187344109.111        -384.506          42.000    35977450.404   144866275.634        -297.141          42.000  
C13  37022332.580   192785004.678          72.886          43.000    37022321.504   149073541.380          56.694          40.000  
C19  24898970.480   129655471.921        3179.597          42.000                                                                  
C20  21686807.396   112928906.182        1274.312          49.000                                                                  
C27  24722084.415   128734360.036       -2414.669          43.000                                                                  
C29  22237971.666   115798963.957        2285.779          46.000                                                                  
C30  21425335.247   111567342.317        -548.904          48.000                                                                  
C32  22747462.375   118452002.690       -1851.431          47.000                                                                  
> 2025  4 11  9 27 40.4990000  0 23                     
G05  21463001.633   112788833.294        1927.406          45.000    21462990.946    87887362.094        1502.135          40.000  
G06  21552751.984   113260474.809        -943.032          45.000    21552743.209    88254875.313        -734.600          45.000  
G07  25165648.256   132246380.462        1370.365          31.000    25165647.965           0.000        1067.330          30.000  
G09  23302449.949   122455194.347       -2654.768          39.000    23302441.753    95419603.533       -2068.418          39.000  
G11  20632723.915   108425697.014         518.579          44.000    20632710.458    84487502.526         404.102          43.000  
G12  23503247.798   123510422.220       -1865.619          34.000    23503256.809    96241913.893       -1454.242          27.000  
G13  22597049.845   118748314.183        3990.543          40.000                                                                  
G17  24899116.068           0.000       -3250.745          23.000                                                                  
G19  22369979.034   117555013.118       -3346.478          42.000                                                                  
G20  20325650.146   106812012.658         154.522          45.000                                                                  
G25  24022864.346   126240999.765        -736.685          36.000    24022864.728           0.000        -576.278          25.000  
G29  24582474.169   129181783.602        3776.875          39.000    24582465.537   100661079.568        2942.981          35.000  
G30  24757970.822   130104131.565        2167.747          41.000    24757975.060   101379752.570        1688.751          29.000  
C07  35930156.582   187097746.235        -692.508          43.000    35930135.914   144675763.563        -535.656          43.000  
C08  36407509.217   189583456.638         -61.519          42.000    36407487.721   146597867.660         -47.588          43.000  
C10  35977504.712   187344301.323        -385.066          42.000    35977487.330   144866424.212        -297.306          42.000  
C13  37022325.654   192784968.292          72.054          43.000    37022314.452   149073513.252          55.887          41.000  
C19  24898665.060   129653882.047        3179.782          42.000                                                                  
C20  21686685.147   112928269.205        1273.387          48.000                                                                  
C27  24722316.252   128735567.519       -2415.743          43.000                                                                  
C29  22237752.251   115797821.512        2283.733          46.000                                                                  
C30  21425388.027   111567616.984        -550.436          48.000                                                                  
C32  22747640.151   118452928.858       -1853.981          47.000                                                                  
> 2025  4 11  9 27 40.9990000  0 22                     
G05  21462818.325   112787869.505        1926.419          45.000    21462807.500    87886611.099        1501.279          39.000  
G06  21552841.840   113260946.631        -945.023          46.000    21552833.036    88255242.973        -736.283          44.000  
G07  25165517.134   132245695.627        1368.171          31.000    25165516.712   103048606.373        1066.478          30.000  
G09  23302702.690   122456522.140       -2656.859          41.000    23302694.435    95420638.217       -2070.461          38.000  
G11  20632674.642   108425438.020         516.595          44.000    20632661.171    84487300.712         402.539          44.000  
G12  23503425.523   123511355.003       -1865.594          35.000    23503431.463    96242640.696       -1453.259          27.000  
G13  22596670.052   118746318.911        3989.220          40.000                                                                  
G19  22370297.525   117556686.347       -3347.733          41.000                                                                  
G20  20325635.459   106811935.661         152.800          45.000                                                                  
G25  24022934.489   126241368.141        -737.772          35.000    24022935.048           0.000        -574.595          26.000  
G29  24582114.935   129179895.425        3775.111          40.000    24582106.067   100659608.244        2941.358          35.000  
G30  24757764.579   130103047.781        2166.551          40.000    24757767.122   101378907.942        1687.848          33.000  
C07  35930223.073   187098092.467        -693.304          42.000    35930202.340   144676031.277        -536.211          43.000  
C08  36407515.046   189583487.457         -63.023          42.000    36407493.662   146597891.481         -48.352          43.000  
C10  35977541.776   187344493.733        -385.909          42.000    35977524.267   144866572.999        -298.335          42.000  
C13  37022318.644   192784932.193          71.219          44.000    37022307.526   149073485.373          54.806          41.000  
C19  24898359.604   129652292.023        3178.823          42.000                                                                  
C20  21686562.745   112927632.610        1272.040          48.000                                                                  
C27  24722548.186   128736775.418       -2416.966          41.000                                                                  
C29  22237533.060   115796679.792        2282.283          47.000                                                                  
C30  21425440.958   111567892.328        -552.012          48.000                                                                  
C32  22747818.149   118453856.128       -1855.996          47.000                                                                  
> 2025  4 11  9 27 41.4990000  0 22                     
G05  21462635.150   112786906.572        1926.350          44.000    21462624.227    87885860.750        1501.251          41.000  
G06  21552931.783   113261419.527        -945.352          45.000    21552922.977    88255611.479        -736.659          44.000  
G07  25165386.108   132245011.673        1369.727          30.000                                                                  
G09  23302955.537   122457851.186       -2657.252          39.000    23302947.289    95421673.764       -2070.229          40.000  
G11  20632625.521   108425180.148         516.626          45.000    20632612.079    84487099.739         402.612          45.000  
G12  23503603.069   123512288.453       -1866.827          34.000    23503607.664    96243368.086       -1453.961          28.000  
G13  22596290.486   118744324.211        3989.306          39.000                                                                  
G19  22370616.101   117558360.393       -3348.308          39.000                                                                  
G20  20325621.054   106811859.684         152.829          45.000                                                                  
G25  24023004.872   126241737.364        -737.190          36.000    24023005.457    98370190.785        -574.904          32.000  
G29  24581755.886   129178008.130        3776.221          40.000    24581747.336   100658137.562        2942.333          36.000  
G30  24757558.512   130101964.810        2165.845          40.000    24757560.205   101378064.068        1687.633          33.000  
C07  35930289.728   187098439.573        -694.265          42.000    35930269.025   144676299.663        -536.718          43.000  
C08  36407521.158   189583519.151         -62.707          42.000    36407499.901   146597916.036         -48.355          43.000  
C10  35977578.845   187344686.990        -386.434          42.000    35977561.309   144866722.476        -299.042          42.000  
C13  37022311.952   192784896.940          71.008          44.000    37022300.745   149073458.057          54.882          41.000  
C19  24898054.400   129650702.646        3178.721          43.000                                                                  
C20  21686440.794   112926996.992        1271.298          48.000                                                                  
C27  24722780.416   128737984.194       -2417.712          41.000                                                                  
C29  22237314.209   115795539.072        2282.300          46.000                                                                  
C30  21425494.101   111568168.733        -552.594          48.000                                                                  
C32  22747996.540   118454784.542       -1855.980          46.000                                                                  
> 2025  4 11  9 27 41.9990000  0 21                     
G05  21462451.946   112785943.585        1925.395          45.000    21462440.942    87885110.315        1500.365          40.000  
G06  21553021.712   113261892.132        -944.748          45.000    21553012.889    88255979.749        -736.417          43.000  
G09  23303208.437   122459180.142       -2658.471          39.000    23303200.272    95422709.278       -2071.238          43.000  
G11  20632576.471   108424922.088         515.997          45.000    20632563.052    84486898.647         402.155          45.000  
G12  23503780.532   123513221.945       -1868.243          33.000    23503785.353    96244095.417       -1455.920          28.000  
G13  22595910.838   118742329.169        3991.015          41.000                                                                  
G19  22370934.590   117560033.902       -3347.256          41.000                                                                  
G20  20325606.667   106811783.611         151.732          45.000                                                                  
G25  24023075.068   126242106.799        -739.333          34.000    24023074.693    98370478.626        -576.285          35.000  
G29  24581396.815   129176121.054        3773.447          40.000    24581388.255   100656667.125        2940.609          36.000  
G30  24757352.347   130100881.330        2167.846          40.000    24757353.024   101377219.896        1686.737          29.000  
C07  35930356.289   187098786.257        -692.918          42.000    35930335.617   144676567.720        -536.074          43.000  
C08  36407527.312   189583550.699         -63.553          41.000    36407505.962   146597940.408         -49.017          42.000  
C10  35977615.832   187344879.977        -385.961          41.000    35977598.337   144866871.624        -298.517          42.000  
C13  37022305.128   192784861.547          70.627          43.000    37022293.920   149073430.691          54.624          42.000  
C19  24897749.088   129649113.018        3179.065          44.000                                                                  
C20  21686318.660   112926361.115        1271.813          48.000                                                                  
C27  24723012.418   128739192.552       -2416.600          41.000                                                                  
C29  22237095.266   115794398.333        2281.189          46.000                                                                  
C30  21425547.203   111568444.786        -551.752          48.000                                                                  
C32  22748174.744   118455712.891       -1856.752          46.000                                                                  
> 2025  4 11  9 27 42.4990000  0 21                     
G05  21462268.974   112784982.159        1914.636          44.000    21462258.029    87884361.162        1491.956          38.000  
G06  21553112.085   113262366.806        -958.104          46.000    21553103.230    88256349.613        -746.724          43.000  
G09  23303461.754   122460511.021       -2669.261          40.000    23303453.561    95423746.344       -2080.530          43.000  
G11  20632527.665   108424665.816         505.249          45.000    20632514.376    84486698.934         393.469          44.000  
G12  23503958.330   123514156.854       -1878.162          33.000    23503962.009           0.000       -1463.544          29.000  
G13  22595531.571   118740336.067        3976.967          42.000                                                                  
G19  22371253.456   117561709.564       -3360.386          41.000                                                                  
G20  20325592.539   106811709.180         141.347          45.000                                                                  
G25  24023145.649   126242477.814        -749.822          33.000    24023144.853    98370767.659        -582.542          31.000  
G29  24581038.079   129174235.405        3763.744          40.000    24581029.820   100655197.799        2932.057          36.000  
G30  24757146.611   130099800.100        2152.961          41.000    24757148.217   101376377.279        1678.341          33.000  
C07  35930423.124   187099134.766        -706.055          43.000    35930402.615   144676837.196        -546.272          43.000  
C08  36407533.516   189583583.834         -74.040          40.000    36407512.372   146597965.973         -57.827          42.000  
C10  35977653.282   187345074.653        -397.784          41.000    35977635.820   144867022.188        -308.301          41.000  
C13  37022298.607   192784827.695          59.968          42.000    37022287.451   149073404.440          46.481          40.000  
C19  24897444.221   129647525.082        3166.924          44.000                                                                  
C20  21686196.863   112925727.078        1259.557          47.000                                                                  
C27  24723244.949   128740403.069       -2430.646          44.000                                                                  
C29  22236876.470   115793259.212        2271.004          45.000                                                                  
C30  21425600.571   111568722.869        -564.932          48.000                                                                  
C32  22748353.442   118456643.062       -1868.220          47.000                                                                  
> 2025  4 11  9 27 42.9990000  0 23                     
G05  21462085.952   112784020.658        1923.427          44.000    21462075.009    87883611.947        1498.580          39.000  
G06  21553202.285   113262841.091        -947.495          46.000    21553193.398    88256719.189        -738.285          43.000  
G07  25164994.451   132242937.990        1364.036          30.000    25164996.515           0.000        1063.060          22.000  
G09  23303714.839   122461841.102       -2658.898          40.000    23303706.613    95424782.737       -2071.589          43.000  
G11  20632478.779   108424408.989         514.758          45.000    20632465.471    84486498.811         401.080          44.000  
G12  23504136.222   123515092.012       -1869.574          32.000    23504137.537           0.000       -1459.192          29.000  
G13  22595152.402   118738343.679        3985.084          42.000                                                                  
G17  24900660.299   130853852.246       -3257.981          26.000                                                                  
G19  22371572.345   117563385.852       -3352.100          42.000                                                                  
G20  20325578.256   106811634.235         150.911          45.000                                                                  
G25  24023216.491           0.000        -748.877          30.000    24023214.685    98371056.467        -576.127          31.000  
G29  24580679.020   129172348.811        3774.336          40.000    24580670.657   100653727.718        2940.894          37.000  
G30  24756940.845   130098719.099        2162.658          42.000    24756942.539   101375534.898        1685.674          32.000  
C07  35930490.272   187099483.484        -696.965          43.000    35930469.579   144677106.836        -539.340          43.000  
C08  36407539.833   189583616.477         -64.680          40.000    36407518.580   146597991.209         -50.145          42.000  
C10  35977690.657   187345269.406        -389.242          41.000    35977673.219   144867172.752        -301.086          41.000  
C13  37022292.157   192784793.551          68.898          42.000    37022280.884   149073377.999          53.516          40.000  
C19  24897139.415   129645937.710        3175.083          44.000                                                                  
C20  21686075.158   112925093.162        1268.110          47.000                                                                  
C27  24723477.466   128741613.940       -2420.727          43.000                                                                  
C29  22236657.491   115792119.430        2280.440          44.000                                                                  
C30  21425653.908   111569000.908        -555.519          48.000                                                                  
C32  22748531.916   118457572.573       -1857.823          48.000                                                                  
> 2025  4 11  9 27 43.4990000  0 23                     
G05  21461902.759   112783058.037        1923.504          44.000    21461891.868    87882861.855        1498.825          39.000  
G06  21553292.233   113263313.923        -947.518          46.000    21553283.422    88257087.624        -738.240          43.000  
G07  25164864.691   132242254.080        1367.191          30.000                                                                  
G09  23303967.771   122463169.618       -2659.520          40.000    23303959.410    95425817.900       -2072.350          43.000  
G11  20632429.579   108424150.778         514.520          45.000    20632416.352    84486297.610         400.952          44.000  
G12  23504313.937   123516025.621       -1870.172          33.000    23504314.013           0.000       -1456.219          28.000  
G13  22594773.145   118736349.970        3986.322          42.000                                                                  
G17  24900974.423   130855479.465       -3256.936          31.000                                                                  
G19  22371891.140   117565060.860       -3351.182          41.000                                                                  
G20  20325563.718   106811558.026         150.668          45.000                                                                  
G25  24023286.819   126243223.844        -740.774          31.000    24023285.475    98371344.361        -577.209          31.000  
G29  24580319.838   129170460.854        3773.091          40.000    24580311.444   100652256.598        2939.930          37.000  
G30  24756734.837   130097636.465        2163.599          43.000    24756735.990   101374691.513        1685.951          28.000  
C07  35930557.107   187099831.061        -696.314          43.000    35930536.328   144677375.609        -538.590          42.000  
C08  36407545.883   189583647.899         -64.659          40.000    36407524.541   146598015.490         -50.014          42.000  
C10  35977727.841   187345463.018        -388.751          41.000    35977710.356   144867322.464        -300.604          41.000  
C13  37022285.426   192784758.185          68.897          43.000    37022274.054   149073350.697          53.495          38.000  
C19  24896834.493   129644349.185        3175.651          44.000                                                                  
C20  21685953.123   112924458.144        1268.509          48.000                                                                  
C27  24723709.943   128742823.367       -2420.473          45.000                                                                  
C29  22236438.331   115790978.431        2280.003          46.000                                                                  
C30  21425706.966   111569277.731        -555.175          47.000                                                                  
C32  22748710.290   118458500.644       -1858.330          48.000                                                                  
> 2025  4 11  9 27 43.9990000  0 22                     
G05  21461719.595   112782095.580        1924.100          45.000    21461708.683    87882111.899        1498.866          40.000  
G06  21553382.286   113263786.877        -946.759          45.000    21553373.415    88257456.146        -737.633          43.000  
G09  23304220.769   122464498.310       -2659.105          41.000    23304212.278    95426853.271       -2072.062          43.000  
G11  20632380.464   108423892.684         514.526          45.000    20632367.236    84486096.509         400.580          44.000  
G12  23504491.556   123516959.949       -1870.795          33.000    23504490.920           0.000       -1457.764          29.000  
G13  22594393.851   118734356.611        3985.311          41.000                                                                  
G17  24901284.380   130857106.823       -3252.589          30.000                                                                  
G19  22372209.901   117566736.087       -3351.998          41.000                                                                  
G20  20325549.214   106811481.912         150.616          45.000                                                                  
G25  24023357.151   126243593.701        -741.146          32.000    24023356.212    98371632.477        -576.261          32.000  
G29  24579960.649   129168573.090        3774.372          41.000    24579952.184   100650785.578        2941.357          36.000  
G30  24756528.897   130096554.113        2163.609          41.000    24756530.103   101373848.103        1687.937          29.000  
C07  35930623.901   187100178.738        -695.857          43.000    35930602.982   144677644.456        -538.365          42.000  
C08  36407551.850   189583679.352         -63.642          41.000    36407530.527   146598039.808         -49.280          42.000  
C10  35977765.043   187345656.701        -388.184          41.000    35977747.482   144867472.217        -299.758          41.000  
C13  37022278.659   192784722.930          69.214          44.000    37022267.170   149073323.408          53.778          39.000  
C19  24896529.458   129642760.969        3175.233          43.000                                                                  
C20  21685831.230   112923823.283        1268.809          48.000                                                                  
C27  24723942.269   128744033.060       -2420.229          44.000                                                                  
C29  22236219.245   115789837.504        2280.663          47.000                                                                  
C30  21425760.033   111569554.693        -554.570          48.000                                                                  
C32  22748888.647   118459428.849       -1857.815          48.000                                                                  
> 2025  4 11  9 27 44.4990000  0 23                     
G05  21461536.866   112781135.254        1923.960          46.000    21461525.932    87881363.581        1499.496          40.000  
G06  21553472.594   113264261.324        -944.652          44.000    21553463.740    88257825.812        -736.068          43.000  
G07  25164611.635           0.000        1364.892          24.000                                                                  
G09  23304473.977   122465828.896       -2658.316          36.000    23304465.419    95427890.045       -2071.113          41.000  
G11  20632331.688   108423636.257         516.565          45.000    20632318.377    84485896.662         402.570          43.000  
G12  23504669.586   123517896.348       -1869.031          33.000    23504668.937           0.000       -1457.068          30.000  
G13  22594014.751   118732364.558        3989.183          41.000                                                                  
G17  24901593.672           0.000       -3253.736          30.000                                                                  
G19  22372528.933   117568412.570       -3347.945          40.000                                                                  
G20  20325535.066   106811407.715         151.792          44.000                                                                  
G25  24023427.839   126243965.997        -741.805          32.000    24023426.088    98371922.705        -578.193          33.000  
G29  24579601.898   129166687.809        3773.068          40.000    24579593.501   100649316.481        2940.198          36.000  
G30  24756323.126   130095472.968        2167.571          38.000    24756324.726           0.000        1688.926          30.000  
C07  35930691.040   187100527.982        -693.846          43.000    35930670.177   144677914.498        -536.739          42.000  
C08  36407558.428   189583712.757         -63.073          42.000    36407537.185   146598065.671         -49.096          43.000  
C10  35977802.581   187345852.098        -386.526          41.000    35977785.044   144867623.322        -298.746          41.000  
C13  37022272.336   192784689.617          70.222          43.000    37022260.785   149073297.688          54.431          42.000  
C19  24896224.813   129641174.506        3177.244          44.000                                                                  
C20  21685709.844   112923190.145        1270.489          48.000                                                                  
C27  24724174.948   128745243.984       -2417.159          43.000                                                                  
C29  22236000.705   115788698.607        2280.996          46.000                                                                  
C30  21425813.629   111569833.133        -552.370          47.000                                                                  
C32  22749067.319   118460358.759       -1856.143          46.000                                                                  
> 2025  4 11  9 27 44.9990000  0 23                     
G05  21461353.977   112780173.638        1927.992          46.000    21461342.902    87880614.253        1502.369          41.000  
G06  21553562.542   113264733.883        -939.985          43.000    21553553.656    88258194.025        -732.086          43.000  
G07                                                                  25164497.155           0.000        1065.810          21.000  
G09  23304726.817   122467157.819       -2653.612          36.000    23304718.316    95428925.586       -2066.635          40.000  
G11  20632282.691   108423378.446         520.959          45.000    20632269.246    84485695.773         405.853          43.000  
G12  23504847.545   123518831.318       -1865.442          36.000    23504846.853    96248466.750       -1452.893          31.000  
G13  22593635.227   118730370.309        3993.590          41.000                                                                  
G17  24901900.977   130860383.713       -3248.421          31.000                                                                  
G19  22372847.536   117570086.758       -3342.366          41.000                                                                  
G20  20325520.658   106811332.249         155.850          45.000                                                                  
G25  24023498.446   126244337.128        -737.189          33.000    24023496.802    98372211.939        -575.139          33.000  
G29  24579242.972   129164801.464        3777.512          40.000    24579234.525   100647846.620        2943.597          36.000  
G30  24756116.893   130094389.387        2172.755          39.000    24756118.120   101372165.269        1691.528          24.000  
C07  35930757.703   187100875.434        -689.869          43.000    35930736.968   144678183.180        -533.482          42.000  
C08  36407564.520   189583744.857         -59.235          41.000    36407543.298   146598090.490         -45.878          43.000  
C10  35977839.631   187346045.903        -382.504          42.000    35977822.271   144867773.193        -295.819          41.000  
C13  37022265.627   192784655.050          73.752          43.000    37022254.164   149073270.965          57.017          42.000  
C19  24895919.775   129639586.292        3181.161          45.000                                                                  
C20  21685587.855   112922555.475        1274.416          48.000                                                                  
C27  24724407.109   128746452.532       -2411.775          41.000                                                                  
C29  22235781.695   115787558.625        2284.985          47.000                                                                  
C30  21425866.746   111570109.822        -548.092          47.000                                                                  
C32  22749245.563   118461287.175       -1851.871          48.000                                                                  
> 2025  4 11  9 27 45.4990000  0 23                     
G05  21461170.553   112779210.024        1928.102          45.000    21461159.451    87879863.397        1502.742          40.000  
G06  21553651.831   113265203.645        -938.786          43.000    21553643.044    88258560.153        -731.955          43.000  
G07  25164357.919           0.000        1377.712          31.000                                                                  
G09  23304979.271   122468484.308       -2651.781          40.000    23304970.760    95429959.315       -2066.122          39.000  
G11  20632233.181   108423118.304         520.630          44.000    20632219.769    84485493.081         405.829          44.000  
G12  23505024.994   123519764.225       -1863.483          35.000    23505025.805           0.000       -1452.850          30.000  
G13  22593255.166   118728373.271        3996.688          41.000                                                                  
G17  24902208.011           0.000       -3242.502          30.000                                                                  
G19  22373165.493   117571757.896       -3340.357          42.000                                                                  
G20  20325505.909   106811254.726         155.502          44.000                                                                  
G25  24023568.728   126244706.716        -736.833          33.000    24023566.775    98372499.901        -575.485          33.000  
G29  24578883.676   129162913.436        3777.049          40.000    24578875.273   100646375.480        2942.394          36.000  
G30  24755910.053   130093302.508        2176.223          39.000    24755910.607   101371318.314        1695.250          31.000  
C07  35930823.887   187101220.370        -688.312          43.000    35930803.271   144678449.909        -532.285          43.000  
C08  36407570.235   189583774.929         -59.413          41.000    36407549.032   146598113.744         -45.864          43.000  
C10  35977876.378   187346237.349        -381.508          42.000    35977858.962   144867921.211        -294.855          41.000  
C13  37022258.643   192784618.432          74.512          44.000    37022247.117   149073242.639          57.965          41.000  
C19  24895614.330   129637995.684        3183.347          45.000                                                                  
C20  21685465.618   112921918.491        1275.357          48.000                                                                  
C27  24724638.693   128747657.932       -2408.976          42.000                                                                  
C29  22235562.406   115786416.781        2283.925          46.000                                                                  
C30  21425919.562   111570383.936        -547.125          47.000                                                                  
C32  22749423.449   118462213.253       -1852.111          46.000                                                                  
> 2025  4 11  9 27 45.9990000  0 23                     
G05  21460987.442   112778247.568        1923.615          45.000    21460976.294    87879113.402        1498.994          40.000  
G06  21553741.345   113265673.928        -942.296          46.000    21553732.486    88258926.613        -734.982          42.000  
G07  25164220.672   132238872.135        1373.093          37.000    25164233.981           0.000        1069.504          23.000  
G09  23305231.685   122469811.045       -2654.376          41.000    23305223.250    95430993.091       -2068.366          43.000  
G11  20632183.892   108422858.935         517.249          44.000    20632170.393    84485290.980         402.728          44.000  
G12  23505202.734   123520698.167       -1867.657          35.000    23505203.367    96249878.492       -1456.287          30.000  
G13  22592875.258   118726377.065        3990.452          42.000                                                                  
G17  24902514.644   130863630.227       -3248.670          33.000                                                                  
G19  22373483.593   117573429.659       -3346.020          41.000                                                                  
G20  20325491.376   106811178.188         151.801          44.000                                                                  
G25  24023639.115           0.000        -740.630          29.000    24023636.852    98372788.282        -576.656          32.000  
G29  24578524.558   129161025.852        3774.503          39.000    24578516.129   100644904.733        2941.485          33.000  
G30  24755703.172   130092215.717        2171.567          42.000    24755703.842   101370471.700        1691.432          35.000  
C07  35930890.355   187101566.427        -694.034          43.000    35930869.680   144678717.485        -536.572          43.000  
C08  36407576.340   189583806.017         -63.396          41.000    36407555.170   146598137.775         -49.092          43.000  
C10  35977913.293   187346430.014        -386.936          42.000    35977895.994   144868070.194        -299.011          41.000  
C13  37022251.778   192784582.894          70.258          42.000    37022240.309   149073215.177          53.786          41.000  
C19  24895309.045   129636406.085        3177.419          44.000                                                                  
C20  21685343.581   112921282.717        1269.737          48.000                                                                  
C27  24724870.229   128748863.683       -2413.205          42.000                                                                  
C29  22235343.265   115785275.829        2281.318          47.000                                                                  
C30  21425972.376   111570658.980        -552.270          48.000                                                                  
C32  22749601.306   118463139.853       -1855.022          47.000                                                                  
> 2025  4 11  9 27 46.4990000  0 23                     
G05  21460804.433   112777285.579        1924.247          44.000    21460793.270    87878363.838        1498.654          38.000  
G06  21553830.997   113266144.866        -941.624          46.000    21553822.084    88259293.561        -733.907          42.000  
G07  25164086.473   132238185.593        1373.401          34.000    25164102.012           0.000        1073.799          24.000  
G09  23305484.343   122471138.686       -2655.354          45.000    23305475.869    95432027.591       -2069.618          43.000  
G11  20632134.602   108422600.191         517.383          44.000    20632121.213    84485089.353         403.186          45.000  
G12  23505380.484   123521632.684       -1870.734          32.000    23505380.091    96250606.577       -1458.405          30.000  
G13  22592495.440   118724381.071        3992.814          42.000                                                                  
G17  24902822.197   130865254.078       -3246.635          30.000                                                                  
G19  22373801.800   117575101.861       -3343.601          43.000                                                                  
G20  20325476.918   106811102.191         151.755          44.000                                                                  
G25  24023711.321           0.000        -743.743          28.000    24023707.181    98373077.508        -578.395          28.000  
G29  24578165.491   129159139.087        3773.167          39.000    24578157.078   100643434.523        2939.882          34.000  
G30  24755496.492   130091129.555        2173.049          41.000    24755497.941   101369625.336        1693.182          37.000  
C07  35930956.824   187101912.746        -692.220          43.000    35930936.144   144678985.272        -535.224          43.000  
C08  36407582.425   189583837.520         -62.651          41.000    36407561.218   146598162.143         -48.860          42.000  
C10  35977950.377   187346622.915        -384.896          41.000    35977933.060   144868219.385        -297.872          40.000  
C13  37022245.000   192784547.785          70.130          42.000    37022233.502   149073188.002          54.715          39.000  
C19  24895003.814   129634816.816        3178.487          42.000                                                                  
C20  21685221.573   112920647.322        1271.378          48.000                                                                  
C27  24725101.886   128750069.976       -2411.885          44.000                                                                  
C29  22235124.366   115784135.492        2280.653          45.000                                                                  
C30  21426025.141   111570934.476        -550.454          48.000                                                                  
C32  22749779.500   118464067.186       -1854.376          48.000                                                                  
> 2025  4 11  9 27 46.9990000  0 23                     
G05  21460621.558   112776324.436        1917.624          44.000    21460610.367    87877614.856        1494.163          38.000  
G06  21553920.821   113266616.530        -947.081          46.000    21553911.858    88259661.113        -738.162          42.000  
G07  25163955.118           0.000        1368.717          30.000    25163969.741   103042249.217        1066.683          26.000  
G09  23305737.219   122472467.100       -2660.622          44.000    23305728.688    95433062.691       -2072.865          41.000  
G11  20632085.559   108422342.013         512.500          44.000    20632072.079    84484888.162         399.500          44.000  
G12  23505558.514   123522568.151       -1876.208          32.000    23505556.982    96251335.457       -1460.889          30.000  
G13  22592115.827   118722386.325        3986.079          40.000                                                                  
G17  24903131.638   130866879.223       -3253.382          30.000                                                                  
G19  22374120.370   117576775.190       -3350.306          44.000                                                                  
G20  20325462.507   106811026.770         147.211          45.000                                                                  
G25  24023782.929           0.000        -740.198          27.000    24023777.601    98373367.312        -581.977          28.000  
G29  24577806.649   129157253.131        3767.594          39.000    24577798.280   100641965.002        2935.180          34.000  
G30  24755289.991   130090044.530        2167.054          41.000    24755291.632   101368779.869        1688.258          37.000  
C07  35931023.489   187102259.931        -698.720          43.000    35931002.858   144679253.755        -540.509          43.000  
C08  36407588.474   189583869.670         -68.885          41.000    36407567.333   146598186.973         -53.524          42.000  
C10  35977987.659   187346816.673        -391.848          41.000    35977970.283   144868369.172        -303.075          40.000  
C13  37022238.450   192784513.354          64.612          43.000    37022226.957   149073161.391          49.720          39.000  
C19  24894698.873   129633228.743        3171.614          42.000                                                                  
C20  21685099.760   112920012.788        1264.908          48.000                                                                  
C27  24725333.817   128751277.431       -2418.715          45.000                                                                  
C29  22234905.588   115782995.786        2274.825          45.000                                                                  
C30  21426078.251   111571210.786        -556.624          48.000                                                                  
C32  22749957.751   118464995.139       -1859.487          47.000                                                                  
> 2025  4 11  9 27 47.4990000  0 23                     
G05  21460438.412   112775362.260        1923.531          44.000    21460427.205    87876865.083        1499.676          41.000  
G06  21554010.312   113267086.875        -942.442          45.000    21554001.317    88260027.573        -734.081          43.000  
G07  25163821.317   132236773.156        1371.519          34.000    25163835.649           0.000        1070.288          27.000  
G09  23305989.724   122473794.406       -2655.658          43.000    23305981.228    95434096.934       -2070.203          41.000  
G11  20632036.166   108422082.543         517.389          44.000    20632022.738    84484685.986         402.936          44.000  
G12  23505736.268   123523502.676       -1869.519          36.000    23505734.393    96252063.717       -1457.581          30.000  
G13  22591736.012   118720390.449        3990.504          42.000                                                                  
G17  24903441.874           0.000       -3249.669          30.000                                                                  
G19  22374438.477   117578447.397       -3346.195          41.000                                                                  
G20  20325447.895   106810950.193         151.400          44.000                                                                  
G25  24023854.846           0.000        -747.924          26.000    24023847.721           0.000        -578.645          27.000  
G29  24577447.567   129155366.308        3772.790          41.000    24577439.252   100640494.658        2940.325          34.000  
G30  24755083.224   130088958.293        2171.292          42.000    24755085.000   101367933.383        1692.452          35.000  
C07  35931089.911   187102605.884        -693.142          43.000    35931069.242   144679521.258        -536.336          43.000  
C08  36407594.418   189583900.588         -63.085          41.000    36407573.284   146598210.892         -48.765          43.000  
C10  35978024.649   187347009.210        -386.671          41.000    35978007.245   144868518.063        -298.563          41.000  
C13  37022231.675   192784477.789          70.299          43.000    37022220.063   149073133.846          54.858          41.000  
C19  24894393.560   129631639.614        3177.590          42.000                                                                  
C20  21684977.627   112919377.075        1270.063          49.000                                                                  
C27  24725565.551   128752483.674       -2414.002          45.000                                                                  
C29  22234686.482   115781854.908        2280.396          47.000                                                                  
C30  21426131.084   111571485.813        -552.236          48.000                                                                  
C32  22750135.808   118465921.796       -1854.771          48.000                                                                  
> 2025  4 11  9 27 47.9990000  0 22                     
G05  21460255.477   112774400.842        1924.009          44.000    21460244.304    87876115.980        1499.347          41.000  
G06  21554099.990   113267558.107        -940.503          45.000    21554090.941    88260394.793        -732.812          42.000  
G07  25163690.408   132236087.167        1373.286          39.000    25163702.496   103041154.590        1070.542          28.000  
G09  23306242.437   122475122.430       -2653.793          43.000    23306233.977    95435131.763       -2067.624          41.000  
G11  20631986.906   108421824.057         519.006          44.000    20631973.512    84484484.586         404.565          44.000  
G12  23505914.099   123524437.776       -1868.671          36.000    23505912.087    96252792.402       -1457.825          31.000  
G13  22591356.229   118718395.102        3992.175          42.000                                                                  
G19  22374756.887   117580120.219       -3344.341          41.000                                                                  
G20  20325433.466   106810874.526         153.320          44.000                                                                  
G25  24023926.187           0.000        -742.334          25.000    24023918.401           0.000        -580.701          26.000  
G29  24577088.569   129153479.944        3774.852          42.000    24577080.302   100639024.860        2941.690          31.000  
G30  24754876.649   130087872.561        2173.167          41.000    24754878.911   101367087.404        1693.333          31.000  
C07  35931156.550   187102952.611        -692.060          43.000    35931135.766   144679789.412        -535.584          43.000  
C08  36407600.550   189583932.324         -61.747          41.000    36407579.432   146598235.456         -48.146          43.000  
C10  35978061.728   187347202.514        -385.330          41.000    35978044.366   144868667.542        -297.390          42.000  
C13  37022224.951   192784442.965          71.176          43.000    37022213.260   149073106.950          55.004          41.000  
C19  24894088.467   129630051.019        3178.657          41.000                                                                  
C20  21684855.820   112918742.315        1270.920          49.000                                                                  
C27  24725797.224   128753690.515       -2411.951          45.000                                                                  
C29  22234467.545   115780714.890        2282.300          47.000                                                                  
C30  21426184.091   111571761.815        -550.359          48.000                                                                  
C32  22750313.976   118466849.445       -1852.948          48.000                                                                  
> 2025  4 11  9 27 48.4990000  0 22                     
G05  21460072.448   112773439.261        1921.385          45.000    21460061.340    87875366.681        1496.940          41.000  
G06  21554189.647   113268028.921        -944.069          45.000    21554180.500    88260761.634        -735.031          43.000  
G07  25163560.320   132235400.807        1370.096          36.000    25163568.452   103040619.755        1069.501          28.000  
G09  23306495.102   122476449.839       -2656.669          43.000    23306486.682    95436166.153       -2070.349          42.000  
G11  20631937.622   108421565.023         517.010          45.000    20631924.255    84484282.729         402.386          44.000  
G12  23506092.099   123525372.855       -1871.710          38.000    23506089.808    96253521.006       -1459.277          31.000  
G13  22590976.645   118716399.937        3987.971          42.000                                                                  
G19  22375075.210   117581793.033       -3347.624          41.000                                                                  
G20  20325419.050   106810798.362         150.750          44.000                                                                  
G25  24023997.626           0.000        -741.928          25.000    24023989.643           0.000        -581.743          26.000  
G29  24576729.523   129151593.107        3771.295          39.000    24576721.188   100637554.587        2939.178          31.000  
G30  24754670.030   130086786.686        2169.389          42.000    24754674.458           0.000        1694.263          27.000  
C07  35931223.039   187103299.256        -695.446          43.000    35931202.341   144680057.400        -537.554          43.000  
C08  36407606.431   189583963.636         -64.974          41.000    36407585.404   146598259.634         -50.122          43.000  
C10  35978098.820   187347395.670        -388.112          41.000    35978081.576   144868816.929        -301.041          41.000  
C13  37022218.212   192784407.807          68.990          43.000    37022206.524   149073079.750          52.788          41.000  
C19  24893783.378   129628462.576        3175.080          41.000                                                                  
C20  21684733.753   112918107.412        1267.789          48.000                                                                  
C27  24726029.153   128754897.306       -2415.865          45.000                                                                  
C29  22234248.738   115779574.402        2279.396          47.000                                                                  
C30  21426237.000   111572037.589        -553.638          48.000                                                                  
C32  22750491.994   118467776.523       -1856.079          48.000                                                                  
> 2025  4 11  9 27 48.9990000  0 22                     
G05  21459889.268   112772476.554        1923.992          45.000    21459878.158    87874616.512        1499.196          41.000  
G06  21554279.049   113268498.931        -941.563          44.000    21554269.941    88261127.892        -733.650          44.000  
G07  25163428.303   132234713.853        1372.806          34.000    25163435.758   103040084.352        1071.625          27.000  
G09  23306747.569   122477776.622       -2653.971          42.000    23306739.150    95437200.000       -2068.123          39.000  
G11  20631888.080   108421305.165         518.109          45.000    20631874.814    84484080.209         404.370          43.000  
G12  23506269.814   123526306.824       -1869.128          40.000    23506266.548    96254248.693       -1456.390          34.000  
G13  22590596.725   118714403.684        3990.409          42.000                                                                  
G19  22375393.402   117583465.038       -3345.200          41.000                                                                  
G20  20325404.337   106810721.268         152.696          44.000                                                                  
G25  24024066.796           0.000        -737.633          25.000    24024060.284           0.000        -575.960          26.000  
G29  24576370.257   129149705.204        3776.064          39.000    24576361.887   100636083.414        2942.352          34.000  
G30  24754463.176   130085699.927        2172.414          42.000    24754468.209   101365406.375        1693.560          32.000  
C07  35931289.424   187103644.826        -693.209          43.000    35931268.675   144680324.639        -535.548          43.000  
C08  36407612.292   189583993.834         -61.864          41.000    36407591.156   146598282.996         -47.786          43.000  
C10  35978135.735   187347587.752        -386.101          42.000    35978118.393   144868965.433        -298.792          41.000  
C13  37022211.367   192784371.539          71.108          43.000    37022199.543   149073051.687          55.318          42.000  
C19  24893478.100   129626873.026        3177.423          43.000                                                                  
C20  21684611.700   112917471.565        1269.612          48.000                                                                  
C27  24726260.766   128756103.247       -2412.524          44.000                                                                  
C29  22234029.554   115778432.938        2281.585          47.000                                                                  
C30  21426289.782   111572312.521        -551.475          48.000                                                                  
C32  22750669.828   118468702.817       -1854.085          47.000                                                                  
> 2025  4 11  9 27 49.4990000  0 23                     
G05  21459706.008   112771513.385        1925.573          44.000    21459694.861    87873865.991        1500.542          41.000  
G06  21554368.368   113268968.378        -938.966          46.000    21554359.264    88261493.658        -731.505          43.000  
G07  25163298.040   132234026.125        1375.487          33.000    25163303.120           0.000        1075.531          28.000  
G09  23306999.894   122479102.878       -2652.202          41.000    23306991.446    95438233.410       -2066.745          41.000  
G11  20631838.461   108421044.712         520.526          44.000    20631825.267    84483877.275         405.682          43.000  
G12  23506447.449   123527240.280       -1867.786          41.000    23506444.568    96254976.119       -1455.536          34.000  
G13  22590216.737   118712406.828        3992.855          42.000                                                                  
G17  24904680.220   130874977.377       -3246.634          27.000                                                                  
G19  22375711.434   117585136.347       -3342.282          41.000                                                                  
G20  20325389.599   106810643.623         154.868          44.000                                                                  
G25  24024137.576           0.000        -725.873          23.000    24024130.652           0.000        -571.902          26.000  
G29  24576010.928   129147816.821        3776.467          38.000    24576002.549   100634611.964        2941.639          31.000  
G30  24754256.266   130084612.549        2174.497          42.000    24754260.469   101364559.088        1695.034          32.000  
C07  35931355.726   187103989.790        -690.744          44.000    35931334.894   144680591.386        -534.123          43.000  
C08  36407617.974   189584023.494         -59.585          41.000    36407596.866   146598305.952         -46.777          43.000  
C10  35978172.398   187347779.250        -383.861          42.000    35978155.166   144869113.520        -297.122          41.000  
C13  37022204.278   192784334.698          72.735          43.000    37022192.462   149073023.208          56.157          41.000  
C19  24893172.602   129625282.907        3179.182          42.000                                                                  
C20  21684489.636   112916835.186        1272.098          49.000                                                                  
C27  24726492.137   128757308.619       -2411.447          45.000                                                                  
C29  22233810.151   115777290.985        2283.136          46.000                                                                  
C30  21426342.425   111572586.873        -549.098          48.000                                                                  
C32  22750847.597   118469628.583       -1851.653          48.000                                                                  
> 2025  4 11  9 27 49.9990000  0 23                     
G05  21459522.701   112770550.286        1925.468          44.000    21459511.601    87873115.523        1500.659          41.000  
G06  21554457.664   113269437.516        -938.565          45.000    21554448.551    88261859.241        -731.203          44.000  
G07  25163168.330   132233338.072        1375.541          35.000    25163171.140           0.000        1070.820          28.000  
G09  23307252.277   122480428.880       -2653.106          41.000    23307243.826    95439266.669       -2067.630          40.000  
G11  20631788.896   108420784.065         521.228          44.000    20631775.630    84483674.155         406.238          43.000  
G12  23506625.137   123528173.861       -1867.792          40.000    23506622.126    96255703.539       -1454.449          34.000  
G13  22589836.722   118710409.799        3994.063          42.000                                                                  
G17  24904986.910   130876600.017       -3244.589          29.000                                                                  
G19  22376029.475   117586807.537       -3342.007          43.000                                                                  
G20  20325374.873   106810565.914         155.166          44.000                                                                  
G25                                                                  24024201.095           0.000        -581.843          26.000  
G29  24575651.571   129145928.463        3775.548          38.000    24575643.273   100633140.475        2942.686          30.000  
G30  24754049.273   130083524.808        2175.032          43.000    24754051.889   101363711.595        1694.560          36.000  
C07  35931421.947   187104334.672        -689.846          43.000    35931401.220   144680858.075        -533.183          43.000  
C08  36407623.566   189584053.068         -58.825          41.000    36407602.458   146598328.785         -45.343          43.000  
C10  35978209.130   187347970.695        -382.889          41.000    35978191.937   144869261.523        -296.024          41.000  
C13  37022197.222   192784297.820          73.417          42.000    37022185.298   149072994.697          57.152          41.000  
C19  24892867.313   129623692.787        3180.952          43.000                                                                  
C20  21684367.276   112916198.823        1272.927          49.000                                                                  
C27  24726723.600   128758513.700       -2410.315          46.000                                                                  
C29  22233590.856   115776148.984        2283.234          46.000                                                                  
C30  21426395.090   111572861.106        -548.116          48.000                                                                  
C32  22751025.263   118470554.134       -1851.455          48.000                                                                  
> 2025  4 11  9 27 50.4990000  0 23                     
G05  21459339.156   112769586.001        1927.286          44.000    21459328.126    87872364.184        1501.851          39.000  
G06  21554546.938   113269906.484        -940.342          44.000    21554537.737    88262224.633        -732.474          42.000  
G07  25163038.245   132232649.774        1373.966          33.000    25163041.106           0.000        1072.001          28.000  
G09  23307504.634   122481754.978       -2655.127          40.000    23307496.142    95440300.026       -2068.974          39.000  
G11  20631739.242   108420523.161         519.348          44.000    20631725.893    84483470.860         404.730          43.000  
G12  23506802.521   123529105.956       -1865.033          42.000    23506799.756    96256429.874       -1453.491          38.000  
G13  22589456.463   118708411.389        3995.814          43.000                                                                  
G17  24905293.863           0.000       -3243.122          29.000                                                                  
G19  22376347.298   117588477.673       -3341.790          41.000                                                                  
G20  20325360.043   106810487.633         154.753          44.000                                                                  
G25                                                                  24024271.834           0.000        -576.903          26.000  
G29  24575292.171   129144039.460        3775.213          36.000    24575283.890   100631668.554        2942.212          30.000  
G30  24753842.095   130082436.416        2175.262          44.000    24753844.444   101362863.578        1693.908          33.000  
C07  35931487.991   187104678.403        -688.850          44.000    35931467.241   144681123.877        -532.417          43.000  
C08  36407629.003   189584081.813         -58.726          41.000    36407608.013   146598351.036         -46.194          42.000  
C10  35978245.638   187348161.034        -381.656          42.000    35978228.413   144869408.732        -295.284          41.000  
C13  37022189.911   192784259.888          74.328          42.000    37022177.950   149072965.374          57.835          41.000  
C19  24892561.617   129622101.153        3182.913          43.000                                                                  
C20  21684244.980   112915561.550        1273.070          48.000                                                                  
C27  24726954.934   128759718.084       -2410.458          45.000                                                                  
C29  22233371.416   115775006.376        2283.368          45.000                                                                  
C30  21426447.848   111573134.803        -549.468          48.000                                                                  
C32  22751202.927   118471479.595       -1853.440          48.000                                                                  
> 2025  4 11  9 27 50.9990000  0 23                     
G05  21459155.723   112768622.028        1925.924          44.000    21459144.666    87871613.013        1500.723          39.000  
G06  21554636.258   113270375.678        -939.041          44.000    21554627.036    88262590.280        -732.105          42.000  
G07  25162908.205   132231962.224        1376.304          28.000    25162911.637           0.000        1069.881          28.000  
G09  23307757.072   122483081.568       -2654.439          36.000    23307748.653    95441333.771       -2067.153          37.000  
G11  20631689.690   108420262.529         519.659          44.000    20631676.354    84483267.777         405.347          44.000  
G12  23506979.974   123530038.383       -1866.437          42.000    23506976.959    96257156.388       -1453.680          38.000  
G13  22589076.198   118706413.126        3995.301          43.000                                                                  
G17  24905600.543           0.000       -3245.194          29.000                                                                  
G19  22376665.130   117590148.028       -3342.072          42.000                                                                  
G20  20325345.183   106810409.612         154.559          44.000                                                                  
G25                                                                  24024342.385    98375665.579        -578.316          26.000  
G29  24574932.778   129142150.861        3776.074          36.000    24574924.548   100630196.971        2940.940          31.000  
G30  24753635.052   130081348.243        2175.778          44.000    24753637.507   101362015.498        1695.883          32.000  
C07  35931554.049   187105022.266        -689.621          44.000    35931533.317   144681389.778        -533.078          42.000  
C08  36407634.538   189584110.749         -59.638          40.000    36407613.617   146598373.404         -45.943          43.000  
C10  35978282.228   187348351.532        -382.876          42.000    35978265.114   144869556.058        -296.478          41.000  
C13  37022182.581   192784222.122          73.895          42.000    37022170.779   149072936.231          56.441          41.000  
C19  24892256.090   129620509.739        3181.486          44.000                                                                  
C20  21684122.514   112914924.503        1272.050          48.000                                                                  
C27  24727186.166   128760922.588       -2410.339          44.000                                                                  
C29  22233152.006   115773864.109        2282.996          45.000                                                                  
C30  21426500.382   111573408.710        -549.425          48.000                                                                  
C32  22751380.764   118472405.358       -1852.598          47.000                                                                  
> 2025  4 11  9 27 51.4990000  0 23                     
G05  21458972.415   112767658.936        1926.437          44.000    21458961.366    87870862.541        1501.491          40.000  
G06  21554725.528   113270845.017        -939.361          44.000    21554716.306    88262955.986        -732.199          42.000  
G07  25162780.117           0.000        1373.365          28.000                                                                  
G09  23308009.490   122484408.147       -2655.416          38.000    23308001.055    95442367.388       -2067.476          40.000  
G11  20631640.123   108420002.150         520.264          44.000    20631626.835    84483064.915         404.883          44.000  
G12  23507157.598   123530971.710       -1866.107          43.000    23507154.678    96257883.680       -1453.827          38.000  
G13  22588696.053   118704415.650        3995.227          43.000                                                                  
G17  24905907.632           0.000       -3245.033          29.000                                                                  
G19  22376983.108   117591818.898       -3341.619          43.000                                                                  
G20  20325330.415   106810332.114         154.749          43.000                                                                  
G25  24024417.024           0.000        -732.627          22.000    24024414.312           0.000        -574.257          27.000  
G29  24574573.455   129140262.687        3776.841          34.000    24574565.290   100628725.588        2942.430          31.000  
G30  24753427.997   130080260.141        2175.316          44.000    24753431.672   101361167.729        1695.494          33.000  
C07  35931620.180   187105366.877        -688.600          43.000    35931599.568   144681656.271        -532.756          42.000  
C08  36407640.291   189584140.298         -58.945          40.000    36407619.259   146598396.241         -45.228          43.000  
C10  35978318.933   187348542.820        -382.600          42.000    35978301.822   144869703.954        -295.813          41.000  
C13  37022175.443   192784185.123          74.778          42.000    37022163.668   149072907.578          58.011          41.000  
C19  24891950.712   129618919.240        3181.760          43.000                                                                  
C20  21684000.483   112914288.235        1272.586          49.000                                                                  
C27  24727417.625   128762127.426       -2409.996          43.000                                                                  
C29  22232932.741   115772722.338        2283.666          44.000                                                                  
C30  21426553.146   111573683.110        -549.178          48.000                                                                  
C32  22751558.527   118473331.270       -1852.751          46.000                                                                  
> 2025  4 11  9 27 51.9990000  0 23                     
G05  21458789.165   112766696.024        1926.944          43.000    21458778.161    87870112.233        1501.703          40.000  
G06  21554814.923   113271314.922        -938.812          46.000    21554805.651    88263322.155        -731.540          42.000  
G07  25162648.643   132230610.982        1376.166          32.000    25162650.669           0.000        1070.058          21.000  
G09  23308262.026   122485735.125       -2652.517          39.000    23308253.631    95443401.440       -2068.122          40.000  
G11  20631590.643   108419742.366         520.795          44.000    20631577.390    84482862.480         406.396          44.000  
G12  23507335.152   123531905.086       -1866.693          42.000    23507332.170    96258610.997       -1454.285          38.000  
G13  22588315.959   118702418.258        3995.247          43.000                                                                  
G17  24906215.216           0.000       -3245.580          29.000                                                                  
G19  22377301.062   117593489.992       -3342.039          43.000                                                                  
G20  20325315.732   106810255.104         155.370          42.000                                                                  
G25  24024488.659           0.000        -734.741          22.000    24024484.676           0.000        -576.348          26.000  
G29  24574214.237   129138374.816        3776.011          36.000    24574206.037   100627254.527        2942.113          31.000  
G30  24753220.995   130079172.317        2175.855          44.000    24753224.325   101360320.057        1695.525          34.000  
C07  35931686.409   187105711.710        -688.477          44.000    35931665.727   144681922.939        -532.558          42.000  
C08  36407645.950   189584170.157         -58.519          40.000    36407625.007   146598419.357         -45.455          43.000  
C10  35978355.783   187348734.350        -382.163          42.000    35978338.495   144869852.046        -295.234          41.000  
C13  37022168.308   192784148.365          74.311          42.000    37022156.592   149072879.140          57.628          41.000  
C19  24891645.227   129617328.736        3181.216          44.000                                                                  
C20  21683878.363   112913652.349        1272.878          48.000                                                                  
C27  24727649.063   128763332.570       -2409.750          45.000                                                                  
C29  22232713.455   115771581.058        2283.484          44.000                                                                  
C30  21426606.035   111573958.010        -548.751          48.000                                                                  
C32  22751736.467   118474257.827       -1852.189          47.000                                                                  
> 2025  4 11  9 27 52.4990000  0 23                     
G05  21458606.189   112765734.072        1923.938          44.000    21458595.142    87869362.651        1498.701          39.000  
G06  21554904.319   113271784.864        -939.415          45.000    21554895.127    88263688.346        -732.166          42.000  
G07  25162516.277   132229923.708        1375.333          35.000    25162520.252           0.000        1065.655          22.000  
G09  23308514.500   122487061.943       -2651.660          40.000    23308506.115    95444435.290       -2066.199          37.000  
G11  20631541.274   108419482.604         519.971          44.000    20631527.963    84482660.045         405.267          44.000  
G12  23507513.052   123532839.748       -1870.001          41.000    23507510.069    96259339.291       -1457.660          36.000  
G13  22587936.042   118700422.072        3991.764          43.000                                                                  
G17  24906524.989           0.000       -3248.791          29.000                                                                  
G19  22377619.215   117595162.102       -3344.785          44.000                                                                  
G20  20325301.224   106810178.345         153.731          44.000                                                                  
G25  24024558.352           0.000        -738.531          21.000    24024555.814           0.000        -579.932          26.000  
G29  24573855.049   129136487.136        3776.712          37.000    24573846.888   100625783.703        2941.740          31.000  
G30  24753014.110   130078085.011        2174.593          44.000    24753016.606   101359472.832        1696.493          30.000  
C07  35931752.846   187106057.491        -691.882          43.000    35931732.167   144682190.264        -534.800          43.000  
C08  36407651.906   189584200.417         -59.939          40.000    36407630.886   146598442.742         -46.529          43.000  
C10  35978392.801   187348926.720        -385.389          42.000    35978375.394   144870000.754        -297.148          42.000  
C13  37022161.389   192784112.213          72.595          42.000    37022149.556   149072851.185          55.865          41.000  
C19  24891340.122   129615739.670        3177.229          42.000                                                                  
C20  21683756.457   112913017.298        1269.747          48.000                                                                  
C27  24727880.658   128764538.452       -2411.849          45.000                                                                  
C29  22232494.294   115770439.948        2282.888          46.000                                                                  
C30  21426658.860   111574233.389        -550.775          48.000                                                                  
C32  22751914.412   118475184.237       -1851.728          48.000                                                                  
> 2025  4 11  9 27 52.9990000  0 23                     
G05  21458423.030   112764771.853        1924.117          44.000    21458412.006    87868612.850        1499.622          40.000  
G06  21554993.678   113272254.373        -939.708          45.000    21554984.443    88264054.181        -732.128          42.000  
G07  25162386.090   132229236.013        1374.884          33.000    25162390.288           0.000        1069.346          23.000  
G09  23308766.869   122488388.287       -2653.187          43.000    23308758.578    95445468.873       -2067.533          41.000  
G11  20631491.731   108419222.416         519.635          44.000    20631478.467    84482457.313         404.803          44.000  
G12  23507690.815   123533774.209       -1868.091          39.000    23507687.884    96260067.411       -1456.049          35.000  
G13  22587556.124   118698425.773        3992.703          42.000                                                                  
G17  24906834.037   130886295.654       -3244.245          29.000    24906875.356           0.000       -2531.496          25.000  
G19  22377937.380   117596833.993       -3343.193          44.000                                                                  
G20  20325286.586   106810101.205         153.305          44.000                                                                  
G25  24024628.761           0.000        -750.856          21.000    24024626.404           0.000        -576.542          25.000  
G29  24573495.742   129134599.097        3774.865          38.000    24573487.572   100624312.380        2942.172          32.000  
G30  24752807.115   130076997.394        2175.651          45.000    24752810.323   101358625.322        1694.871          34.000  
C07  35931819.206   187106403.005        -690.881          43.000    35931798.546   144682457.427        -534.479          43.000  
C08  36407657.660   189584230.354         -60.298          40.000    36407636.629   146598465.876         -46.761          43.000  
C10  35978429.656   187349118.809        -384.163          41.000    35978412.256   144870149.315        -297.368          43.000  
C13  37022154.425   192784075.786          72.753          42.000    37022142.592   149072822.978          56.015          41.000  
C19  24891034.839   129614150.449        3178.908          40.000                                                                  
C20  21683634.435   112912382.056        1269.775          48.000                                                                  
C27  24728112.093   128765743.976       -2410.943          45.000                                                                  
C29  22232275.071   115769298.519        2281.967          46.000                                                                  
C30  21426711.631   111574508.484        -550.794          48.000                                                                  
C32  22752092.248   118476110.230       -1852.788          49.000                                                                  
> 2025  4 11  9 27 53.4990000  0 23                     
G05  21458240.095   112763810.146        1922.843          44.000    21458229.049    87867863.490        1497.965          40.000  
G06  21555083.119   113272724.379        -940.327          46.000    21555073.907    88264420.431        -732.987          42.000  
G07  25162254.557           0.000        1371.971          26.000    25162261.425           0.000        1069.825          22.000  
G09  23309019.467   122489715.465       -2653.370          35.000    23309011.053    95446502.970       -2067.858          41.000  
G11  20631442.265   108418962.794         518.896          45.000    20631428.968    84482255.013         403.973          44.000  
G12  23507868.765   123534709.135       -1871.143          40.000    23507865.767    96260795.927       -1457.440          34.000  
G13  22587176.276   118696429.712        3990.699          41.000                                                                  
G17  24907144.792   130887918.997       -3247.170          29.000    24907184.265           0.000       -2533.179          24.000  
G19  22378255.598   117598506.157       -3345.638          43.000                                                                  
G20  20325271.986   106810024.636         152.914          44.000                                                                  
G25  24024700.838           0.000        -728.627          20.000    24024697.069           0.000        -582.497          25.000  
G29  24573136.611   129132711.680        3774.745          40.000    24573128.448   100622841.792        2938.929          31.000  
G30  24752600.228   130075910.055        2174.285          44.000    24752602.685   101357778.077        1694.146          34.000  
C07  35931885.599   187106748.849        -692.708          42.000    35931864.995   144682724.846        -535.676          43.000  
C08  36407663.467   189584260.755         -61.549          40.000    36407642.384   146598489.368         -47.629          43.000  
C10  35978466.693   187349311.265        -385.692          41.000    35978449.227   144870298.129        -298.585          43.000  
C13  37022147.405   192784039.801          71.432          42.000    37022135.749   149072795.158          55.477          41.000  
C19  24890729.695   129612561.559        3176.960          42.000                                                                  
C20  21683512.530   112911747.229        1268.560          47.000                                                                  
C27  24728343.700   128766949.886       -2412.336          45.000                                                                  
C29  22232056.052   115768157.708        2281.240          45.000                                                                  
C30  21426764.552   111574784.008        -551.880          48.000                                                                  
C32  22752270.207   118477036.829       -1853.308          48.000                                                                  
> 2025  4 11  9 27 53.9990000  0 23                     
G05  21458057.090   112762848.811        1925.468          43.000    21458046.055    87867114.371        1500.799          40.000  
G06  21555172.451   113273194.164        -937.982          45.000    21555163.205    88264786.452        -730.505          41.000  
G07  25162122.955           0.000        1378.878          25.000                                                                  
G09  23309271.834   122491041.929       -2652.031          41.000    23309263.459    95447536.545       -2066.577          38.000  
G11  20631392.791   108418702.994         521.509          45.000    20631379.469    84482052.552         406.683          43.000  
G12  23508046.744   123535644.588       -1867.627          38.000    23508043.801    96261524.856       -1455.945          34.000  
G13  22586796.439   118694434.099        3994.183          40.000                                                                  
G17  24907452.350   130889545.449       -3244.504          29.000    24907493.540           0.000       -2529.020          24.000  
G19  22378573.731   117600178.641       -3342.900          43.000                                                                  
G20  20325257.343   106809948.088         155.598          44.000                                                                  
G25                                                                  24024767.704           0.000        -582.352          26.000  
G29  24572777.421   129130824.092        3777.531          39.000    24572769.173   100621370.788        2944.467          31.000  
G30  24752393.291   130074822.636        2175.887          44.000    24752395.591   101356930.820        1695.184          34.000  
C07  35931952.034   187107095.062        -690.057          42.000    35931931.500   144682992.530        -533.545          43.000  
C08  36407669.440   189584291.222         -58.416          40.000    36407648.293   146598512.937         -45.176          43.000  
C10  35978503.685   187349504.111        -382.992          41.000    35978486.233   144870447.227        -296.427          43.000  
C13  37022140.615   192784004.049          74.263          42.000    37022128.910   149072767.526          57.110          41.000  
C19  24890424.659   129610973.303        3179.779          43.000                                                                  
C20  21683390.667   112911112.776        1271.842          48.000                                                                  
C27  24728575.316   128768155.847       -2410.454          46.000                                                                  
C29  22231837.012   115767016.837        2284.170          45.000                                                                  
C30  21426817.383   111575059.674        -549.173          48.000                                                                  
C32  22752448.143   118477963.076       -1851.184          48.000                                                                  
> 2025  4 11  9 27 54.4990000  0 23                     
G05  21457873.942   112761886.575        1924.943          43.000    21457862.977    87866364.599        1500.142          39.000  
G06  21555261.793   113273663.522        -938.630          46.000    21555252.520    88265152.254        -731.563          42.000  
G07  25161994.711           0.000        1374.809          25.000                                                                  
G09  23309524.215   122492368.226       -2653.210          39.000    23309515.797    95448570.089       -2067.817          41.000  
G11  20631343.270   108418442.802         520.282          45.000    20631329.972    84481849.811         405.438          44.000  
G12  23508224.547   123536578.862       -1868.347          38.000    23508221.588    96262252.873       -1455.487          34.000  
G13  22586416.470   118692437.429        3993.302          42.000                                                                  
G17  24907760.770   130891165.880       -3244.425          29.000    24907801.702           0.000       -2526.938          25.000  
G19  22378891.782   117601850.207       -3342.252          43.000                                                                  
G20  20325242.682   106809870.983         154.071          43.000                                                                  
G25                                                                  24024837.948           0.000        -577.734          27.000  
G29  24572418.144   129128935.815        3777.117          39.000    24572409.834   100619899.553        2942.282          34.000  
G30  24752186.317   130073734.369        2176.570          45.000    24752187.791   101356082.840        1695.720          34.000  
C07  35932018.415   187107440.321        -689.739          42.000    35931997.788   144683259.526        -533.156          43.000  
C08  36407675.128   189584320.985         -59.367          40.000    36407653.964   146598535.929         -46.099          43.000  
C10  35978540.611   187349696.015        -383.389          41.000    35978523.035   144870595.616        -296.514          42.000  
C13  37022133.568   192783967.437          73.493          42.000    37022121.873   149072739.216          56.873          40.000  
C19  24890119.441   129609383.724        3179.470          42.000                                                                  
C20  21683268.588   112910477.588        1271.001          48.000                                                                  
C27  24728806.626   128769360.932       -2410.191          46.000                                                                  
C29  22231617.861   115765875.457        2282.463          45.000                                                                  
C30  21426870.290   111575334.785        -549.904          48.000                                                                  
C32  22752626.010   118478889.111       -1852.011          47.000                                                                  
